[
  { "model": "cms.poicategory", "pk": 1, "fields": { "icon": "office", "color": "#C38E03" } },
  { "model": "cms.poicategory", "pk": 2, "fields": { "icon": "house", "color": "#A258FF" } },
  {
    "model": "cms.poicategory",
    "pk": 3,
    "fields": { "icon": "meeting_point", "color": "#EE36DC" }
  },
  { "model": "cms.poicategory", "pk": 4, "fields": { "icon": "leisure", "color": "#FF3333" } },
  { "model": "cms.poicategory", "pk": 5, "fields": { "icon": "shopping", "color": "#FF7C32" } },
  { "model": "cms.poicategory", "pk": 6, "fields": { "icon": "service", "color": "#3700D2" } },
  { "model": "cms.poicategory", "pk": 7, "fields": { "icon": "mobility", "color": "#3F8F01" } },
  { "model": "cms.poicategory", "pk": 8, "fields": { "icon": "health", "color": "#07DC03" } },
  { "model": "cms.poicategory", "pk": 9, "fields": { "icon": "culture", "color": "#F2DA04" } },
  { "model": "cms.poicategory", "pk": 10, "fields": { "icon": "gastronomy", "color": "#1DC6C6" } },
  { "model": "cms.poicategory", "pk": 11, "fields": { "icon": "media", "color": "#585858" } },
  { "model": "cms.poicategory", "pk": 12, "fields": { "icon": "other", "color": "#2E98FB" } },
  {
    "model": "cms.poicategorytranslation",
    "pk": 1,
    "fields": { "category": 1, "language": 1, "name": "Behörde/Amt" }
  },
  {
    "model": "cms.poicategorytranslation",
    "pk": 2,
    "fields": { "category": 1, "language": 2, "name": "Authority/Office" }
  },
  {
    "model": "cms.poicategorytranslation",
    "pk": 3,
    "fields": { "category": 2, "language": 1, "name": "Einrichtung" }
  },
  {
    "model": "cms.poicategorytranslation",
    "pk": 4,
    "fields": { "category": 2, "language": 2, "name": "Institution" }
  },
  {
    "model": "cms.poicategorytranslation",
    "pk": 5,
    "fields": { "category": 3, "language": 1, "name": "Treffpunkt" }
  },
  {
    "model": "cms.poicategorytranslation",
    "pk": 6,
    "fields": { "category": 3, "language": 2, "name": "Hangout" }
  },
  {
    "model": "cms.poicategorytranslation",
    "pk": 7,
    "fields": { "category": 4, "language": 1, "name": "Freizeit" }
  },
  {
    "model": "cms.poicategorytranslation",
    "pk": 8,
    "fields": { "category": 4, "language": 2, "name": "Recreation" }
  },
  {
    "model": "cms.poicategorytranslation",
    "pk": 9,
    "fields": { "category": 5, "language": 1, "name": "Einkaufen" }
  },
  {
    "model": "cms.poicategorytranslation",
    "pk": 10,
    "fields": { "category": 5, "language": 2, "name": "Shopping" }
  },
  {
    "model": "cms.poicategorytranslation",
    "pk": 11,
    "fields": { "category": 6, "language": 1, "name": "Dienstleistung" }
  },
  {
    "model": "cms.poicategorytranslation",
    "pk": 12,
    "fields": { "category": 6, "language": 2, "name": "Service" }
  },
  {
    "model": "cms.poicategorytranslation",
    "pk": 13,
    "fields": { "category": 7, "language": 1, "name": "Mobilität" }
  },
  {
    "model": "cms.poicategorytranslation",
    "pk": 14,
    "fields": { "category": 7, "language": 2, "name": "Mobility" }
  },
  {
    "model": "cms.poicategorytranslation",
    "pk": 15,
    "fields": { "category": 8, "language": 1, "name": "Gesundheit" }
  },
  {
    "model": "cms.poicategorytranslation",
    "pk": 16,
    "fields": { "category": 8, "language": 2, "name": "Health" }
  },
  {
    "model": "cms.poicategorytranslation",
    "pk": 17,
    "fields": { "category": 9, "language": 1, "name": "Kultur" }
  },
  {
    "model": "cms.poicategorytranslation",
    "pk": 18,
    "fields": { "category": 9, "language": 2, "name": "Culture" }
  },
  {
    "model": "cms.poicategorytranslation",
    "pk": 19,
    "fields": { "category": 10, "language": 1, "name": "Gastronomie" }
  },
  {
    "model": "cms.poicategorytranslation",
    "pk": 20,
    "fields": { "category": 10, "language": 2, "name": "Gastronomy" }
  },
  {
    "model": "cms.poicategorytranslation",
    "pk": 21,
    "fields": { "category": 11, "language": 1, "name": "Multimedia" }
  },
  {
    "model": "cms.poicategorytranslation",
    "pk": 22,
    "fields": { "category": 11, "language": 2, "name": "Multimedia" }
  },
  {
    "model": "cms.poicategorytranslation",
    "pk": 23,
    "fields": { "category": 12, "language": 1, "name": "Sonstiges" }
  },
  {
    "model": "cms.poicategorytranslation",
    "pk": 24,
    "fields": { "category": 12, "language": 2, "name": "Others" }
  },
  {
    "model": "cms.poi",
    "pk": 100,
    "fields": {
      "region": 1,
      "created_date": "2021-12-22T11:19:25Z",
      "address": "Kapuzinerstraße 30",
      "postcode": "80337",
      "city": "München",
      "country": "Deutschland",
      "latitude": 48.1252274,
      "longitude": 11.5606983,
      "archived": true,
      "category": 1
    }
  },
  {
    "model": "cms.poi",
    "pk": 101,
    "fields": {
      "region": 1,
      "created_date": "2022-03-15T15:26:22Z",
      "address": "Ruppertstraße 5",
      "postcode": "80337",
      "city": "München",
      "country": "Deutschland",
      "latitude": 48.1230528,
      "longitude": 11.5532273,
      "category": 7
    }
  },
  {
    "model": "cms.poi",
    "pk": 102,
    "fields": {
      "region": 1,
      "created_date": "2022-03-15T22:18:22Z",
      "address": "Müllerstraße 6",
      "postcode": "80469",
      "city": "München",
      "country": "Deutschland",
      "latitude": 48.1331254,
      "longitude": 11.5742856,
      "category": 1
    }
  },
  {
    "model": "cms.poi",
    "pk": 103,
    "fields": {
      "region": 1,
      "created_date": "2022-03-16T14:45:02Z",
      "address": "Baierbrunner Str. 39",
      "postcode": "81379",
      "city": "München",
      "country": "Deutschland",
      "latitude": 48.0951717,
      "longitude": 11.5318192,
      "archived": true,
      "category": 1
    }
  },
  {
    "model": "cms.poi",
    "pk": 104,
    "fields": {
      "region": 1,
      "created_date": "2022-03-24T17:05:01Z",
      "address": "Müllerstr. 2",
      "postcode": "80469",
      "city": "München",
      "country": "Deutschland",
      "latitude": 48.133410850000004,
      "longitude": 11.574406935035453,
      "category": 2
    }
  },
  {
    "model": "cms.poi",
    "pk": 105,
    "fields": {
      "region": 1,
      "created_date": "2022-03-29T08:41:29Z",
      "address": "Korbinianplatz 15",
      "postcode": "80807",
      "city": "München",
      "country": "Deutschland",
      "latitude": null,
      "longitude": null,
      "location_on_map": false,
      "archived": true,
      "category": 1
    }
  },
  {
    "model": "cms.poi",
    "pk": 106,
    "fields": {
      "region": 1,
      "created_date": "2022-03-29T08:42:08Z",
      "address": "Korbinianplatz 15",
      "postcode": "80807",
      "city": "München",
      "country": "Deutschland",
      "latitude": 48.1851923,
      "longitude": 11.570715659432453,
      "category": 1
    }
  },
  {
    "model": "cms.poi",
    "pk": 107,
    "fields": {
      "region": 1,
      "created_date": "2022-04-27T13:19:38Z",
      "address": "Metzstraße 37",
      "postcode": "81667",
      "city": "München",
      "country": "Deutschland",
      "latitude": 48.1319427,
      "longitude": 11.6010515,
      "category": 4
    }
  },
  {
    "model": "cms.poi",
    "pk": 108,
    "fields": {
      "region": 1,
      "created_date": "2022-04-27T13:36:26Z",
      "address": "Metzstraße 37",
      "postcode": "81667",
      "city": "München",
      "country": "Deutschland",
      "latitude": null,
      "longitude": null,
      "location_on_map": false,
      "archived": true,
      "category": 3
    }
  },
  {
    "model": "cms.poi",
    "pk": 109,
    "fields": {
      "region": 1,
      "created_date": "2022-05-05T11:32:13Z",
      "address": "Albert-Schweitzer-Straße 66",
      "postcode": "81735",
      "city": "München",
      "country": "Deutschland",
      "latitude": 48.1072139,
      "longitude": 11.6447742,
      "category": 3
    }
  },
  {
    "model": "cms.poi",
    "pk": 110,
    "fields": {
      "region": 1,
      "created_date": "2022-05-05T15:48:15Z",
      "address": "Friedrich-Loy-Str.16",
      "postcode": "80796",
      "city": "München",
      "country": "Deutschland",
      "latitude": 48.16287215,
      "longitude": 11.565514614723106,
      "category": 4
    }
  },
  {
    "model": "cms.poi",
    "pk": 111,
    "fields": {
      "region": 1,
      "created_date": "2022-05-05T18:35:48Z",
      "address": "Bayerstraße 10 A",
      "postcode": "80335",
      "city": "München",
      "country": "Deutschland",
      "latitude": 48.14037,
      "longitude": 11.55839,
      "category": 8
    }
  },
  {
    "model": "cms.poi",
    "pk": 112,
    "fields": {
      "region": 1,
      "created_date": "2022-05-12T11:24:37Z",
      "address": "Dachauer Straße 21a",
      "postcode": "80335",
      "city": "München",
      "country": "Deutschland",
      "latitude": 48.1543879,
      "longitude": 11.5535181,
      "category": 4
    }
  },
  {
    "model": "cms.poi",
    "pk": 113,
    "fields": {
      "region": 1,
      "created_date": "2022-05-12T11:58:41Z",
      "address": "Thalkirchner Straße 207",
      "postcode": "81371",
      "city": "München",
      "country": "Deutschland",
      "latitude": 48.1067027,
      "longitude": 11.5457579,
      "category": 10
    }
  },
  {
    "model": "cms.poi",
    "pk": 114,
    "fields": {
      "region": 1,
      "created_date": "2022-05-12T11:59:22Z",
      "address": "Thalkirchner Straße 207",
      "postcode": "81371",
      "city": "München",
      "country": "Deutschland",
      "latitude": null,
      "longitude": null,
      "location_on_map": false,
      "archived": true,
      "category": 4
    }
  },
  {
    "model": "cms.poi",
    "pk": 115,
    "fields": {
      "region": 1,
      "created_date": "2022-05-19T15:56:18Z",
      "address": "Baierbrunnerstr. 39",
      "postcode": "81379",
      "city": "München",
      "country": "Deutschland",
      "latitude": 48.0951717,
      "longitude": 11.5318192,
      "category": 7
    }
  },
  {
    "model": "cms.poi",
    "pk": 116,
    "fields": {
      "region": 1,
      "created_date": "2022-05-19T15:57:27Z",
      "address": "Baierbrunnerstr. 39",
      "postcode": "81379",
      "city": "München",
      "country": "Deutschland",
      "latitude": null,
      "longitude": null,
      "location_on_map": false,
      "archived": true,
      "category": 6
    }
  },
  {
    "model": "cms.poi",
    "pk": 117,
    "fields": {
      "region": 1,
      "created_date": "2022-05-20T10:48:48Z",
      "address": "Blodigstraße 4",
      "postcode": "80933",
      "city": "München",
      "country": "Deutschland",
      "latitude": 48.21352095,
      "longitude": 11.5573460625516,
      "category": 11
    }
  },
  {
    "model": "cms.poi",
    "pk": 118,
    "fields": {
      "region": 1,
      "created_date": "2022-05-24T10:13:38.864Z",
      "address": "Marienplatz 15",
      "postcode": "80331",
      "city": "München",
      "country": "Deutschland",
      "latitude": 48.1366906,
      "longitude": 11.5768793,
      "category": 11
    }
  },
  {
    "model": "cms.poi",
    "pk": 119,
    "fields": {
      "region": 1,
      "created_date": "2022-05-25T13:00:33.069Z",
      "address": "Wörthstraße 24",
      "postcode": "81667",
      "city": "München",
      "country": "Deutschland",
      "latitude": 48.1300485,
      "longitude": 11.60021050201576,
      "category": 1
    }
  },
  {
    "model": "cms.poi",
    "pk": 120,
    "fields": {
      "region": 1,
      "created_date": "2022-05-27T08:50:43.691Z",
      "address": "Karlstraße 50",
      "postcode": "80333",
      "city": "München",
      "country": "Deutschland",
      "latitude": 48.1452326,
      "longitude": 11.5610129,
      "category": 12
    }
  },
  {
    "model": "cms.poi",
    "pk": 121,
    "fields": {
      "region": 1,
      "created_date": "2022-05-31T10:42:55.904Z",
      "address": "Brecherspitzstr. 8",
      "postcode": "81541",
      "city": "München",
      "country": "Deutschland",
      "latitude": 48.1155832,
      "longitude": 11.5894711,
      "category": 9
    }
  },
  {
    "model": "cms.poi",
    "pk": 122,
    "fields": {
      "region": 1,
      "created_date": "2022-05-31T12:48:09.250Z",
      "address": "Angertorstr. 3",
      "postcode": "80469",
      "city": "München",
      "country": "Deutschland",
      "latitude": 48.1314139,
      "longitude": 11.570329,
      "category": 7
    }
  },
  {
    "model": "cms.poi",
    "pk": 123,
    "fields": {
      "region": 1,
      "created_date": "2022-06-01T14:50:01.934Z",
      "address": "Bayerstrasse 3-5",
      "postcode": "80335",
      "city": "München",
      "country": "Deutschland",
      "latitude": 48.1391283,
      "longitude": 11.5638487,
      "category": 7
    }
  },
  {
    "model": "cms.poi",
    "pk": 124,
    "fields": {
      "region": 1,
      "created_date": "2022-06-03T09:57:00.561Z",
      "address": "Ruppertstrasse 11",
      "postcode": "80337",
      "city": "München",
      "country": "Deutschland",
      "latitude": 48.1237496,
      "longitude": 11.551733466758938,
      "category": 7
    }
  },
  {
    "model": "cms.poi",
    "pk": 125,
    "fields": {
      "region": 1,
      "created_date": "2022-06-07T17:35:06.187Z",
      "address": "Sedanstraße 37",
      "postcode": "81667",
      "city": "München",
      "country": "Deutschland",
      "latitude": 48.1290007,
      "longitude": 11.5997318,
      "category": 7
    }
  },
  {
    "model": "cms.poi",
    "pk": 126,
    "fields": {
      "region": 1,
      "created_date": "2022-06-09T08:09:22.253Z",
      "address": "Jahnstraße 38",
      "postcode": "80469",
      "city": "München",
      "country": "Deutschland",
      "latitude": 48.1277757,
      "longitude": 11.569031170315139,
      "category": 7
    }
  },
  {
    "model": "cms.poi",
    "pk": 127,
    "fields": {
      "region": 1,
      "created_date": "2022-06-10T12:08:42.023Z",
      "address": "Franziskaner Straße 8",
      "postcode": "81669",
      "city": "München",
      "country": "Deutschland",
      "latitude": 48.1275547,
      "longitude": 11.5929961,
      "category": 7,
      "opening_hours": [
        {
          "allDay": false,
          "closed": false,
          "appointmentOnly": false,
          "timeSlots": [
            { "end": "13:00", "start": "10:00" },
            { "end": "18:00", "start": "15:00" }
          ]
        },
        {
          "allDay": false,
          "closed": false,
          "appointmentOnly": false,
          "timeSlots": [
            { "end": "13:00", "start": "10:00" },
            { "end": "18:00", "start": "15:00" }
          ]
        },
        { "allDay": false, "closed": true, "appointmentOnly": false, "timeSlots": [] },
        {
          "allDay": false,
          "closed": false,
          "appointmentOnly": false,
          "timeSlots": [
            { "end": "13:00", "start": "10:00" },
            { "end": "18:00", "start": "15:00" }
          ]
        },
        {
          "allDay": false,
          "closed": false,
          "appointmentOnly": false,
          "timeSlots": [{ "end": "14:00", "start": "10:00" }]
        },
        { "allDay": false, "closed": true, "appointmentOnly": false, "timeSlots": [] },
        { "allDay": false, "closed": true, "appointmentOnly": false, "timeSlots": [] }
      ]
    }
  },
  {
    "model": "cms.poi",
    "pk": 128,
    "fields": {
      "region": 1,
      "created_date": "2022-06-10T13:04:46.683Z",
      "address": "Terofalstraße 68",
      "postcode": "80689",
      "city": "München",
      "country": "Deutschland",
      "latitude": 48.1258633,
      "longitude": 11.4731335,
      "category": 7
    }
  },
  {
    "model": "cms.poi",
    "pk": 129,
    "fields": {
      "region": 1,
      "created_date": "2022-06-10T13:07:07.734Z",
      "address": "Zenettistraße 21",
      "postcode": "80337",
      "city": "München",
      "country": "Deutschland",
      "latitude": 48.1240266,
      "longitude": 11.5564467,
      "category": 7
    }
  },
  {
    "model": "cms.poi",
    "pk": 130,
    "fields": {
      "region": 1,
      "created_date": "2022-06-10T13:07:58.652Z",
      "address": "Maximilianstraße 26",
      "postcode": "80539",
      "city": "München",
      "country": "Deutschland",
      "latitude": 48.1384914,
      "longitude": 11.5825187,
      "category": 7
    }
  },
  {
    "model": "cms.poi",
    "pk": 131,
    "fields": {
      "region": 1,
      "created_date": "2022-06-10T13:18:23.233Z",
      "address": "Grimmstraße 1",
      "postcode": "80336",
      "city": "München",
      "country": "Deutschland",
      "latitude": 48.126247,
      "longitude": 11.5500102,
      "category": 7
    }
  },
  {
    "model": "cms.poi",
    "pk": 132,
    "fields": {
      "region": 1,
      "created_date": "2022-06-10T13:22:33.309Z",
      "address": "Goethestraße 8",
      "postcode": "80336",
      "city": "München",
      "country": "Deutschland",
      "latitude": 48.1384174,
      "longitude": 11.558388,
      "category": 7
    }
  },
  {
    "model": "cms.poi",
    "pk": 133,
    "fields": {
      "region": 1,
      "created_date": "2022-06-10T13:30:14.902Z",
      "address": "Müllerstraße 40",
      "postcode": "80469",
      "city": "München",
      "country": "Deutschland",
      "latitude": 48.1311981,
      "longitude": 11.56956855,
      "category": 7
    }
  },
  {
    "model": "cms.poi",
    "pk": 134,
    "fields": {
      "region": 1,
      "created_date": "2022-06-10T13:40:10.643Z",
      "address": "Rumfordstr. 25",
      "postcode": "80469",
      "city": "München",
      "country": "Deutschland",
      "latitude": 48.133901050000006,
      "longitude": 11.578593391860554,
      "category": 7,
      "opening_hours": [
        {
          "allDay": false,
          "closed": false,
          "appointmentOnly": false,
          "timeSlots": [
            { "end": "13:00", "start": "10:00" },
            { "end": "18:00", "start": "15:00" }
          ]
        },
        {
          "allDay": false,
          "closed": false,
          "appointmentOnly": false,
          "timeSlots": [
            { "end": "13:00", "start": "10:00" },
            { "end": "18:00", "start": "15:00" }
          ]
        },
        { "allDay": false, "closed": true, "timeSlots": [] },
        {
          "allDay": false,
          "closed": false,
          "appointmentOnly": false,
          "timeSlots": [
            { "end": "13:00", "start": "10:00" },
            { "end": "18:00", "start": "15:00" }
          ]
        },
        { "allDay": false, "closed": false, "timeSlots": [{ "end": "14:00", "start": "10:00" }] },
        { "allDay": false, "closed": true, "timeSlots": [] },
        { "allDay": false, "closed": true, "timeSlots": [] }
      ]
    }
  },
  {
    "model": "cms.poi",
    "pk": 135,
    "fields": {
      "region": 1,
      "created_date": "2022-06-10T13:57:05.516Z",
      "address": "Luise-Kiesselbach-Platz 2",
      "postcode": "81377",
      "city": "München",
      "country": "Deutschland",
      "latitude": 48.1134905,
      "longitude": 11.5178403,
      "archived": true,
      "category": 7
    }
  },
  {
    "model": "cms.poi",
    "pk": 136,
    "fields": {
      "region": 1,
      "created_date": "2022-06-10T14:50:40.111Z",
      "address": "Franziskanerstraße 14",
      "postcode": "81669",
      "city": "München",
      "country": "Deutschland",
      "latitude": 48.12693,
      "longitude": 11.5923,
      "category": 7
    }
  },
  {
    "model": "cms.poi",
    "pk": 137,
    "fields": {
      "region": 1,
      "created_date": "2022-06-10T16:56:24.085Z",
      "address": "Pfarrer-Grimm-Straße 1",
      "postcode": "80999",
      "city": "München",
      "country": "Deutschland",
      "latitude": 48.1794882,
      "longitude": 11.4622021355496,
      "category": 7
    }
  },
  {
    "model": "cms.poi",
    "pk": 138,
    "fields": {
      "region": 1,
      "created_date": "2022-06-10T16:58:49.280Z",
      "address": "Schlüsselbergstr. 4",
      "postcode": "81673",
      "city": "München",
      "country": "Deutschland",
      "latitude": 48.129588,
      "longitude": 11.6221657,
      "category": 7
    }
  },
  {
    "model": "cms.poi",
    "pk": 139,
    "fields": {
      "region": 1,
      "created_date": "2022-06-10T16:59:52.454Z",
      "address": "Rosenkavalierplatz 16",
      "postcode": "81925",
      "city": "München",
      "country": "Deutschland",
      "latitude": 48.1516994,
      "longitude": 11.619826,
      "category": 7
    }
  },
  {
    "model": "cms.poi",
    "pk": 140,
    "fields": {
      "region": 1,
      "created_date": "2022-06-10T17:01:22.634Z",
      "address": "Berner Straße 4",
      "postcode": "81476",
      "city": "München",
      "country": "Deutschland",
      "latitude": 48.0958408,
      "longitude": 11.4945663,
      "category": 7
    }
  },
  {
    "model": "cms.poi",
    "pk": 141,
    "fields": {
      "region": 1,
      "created_date": "2022-06-10T17:06:51.881Z",
      "address": "Deisenhofener Str. 20",
      "postcode": "81539",
      "city": "München",
      "country": "Deutschland",
      "latitude": 48.1142365,
      "longitude": 11.582225,
      "category": 7
    }
  },
  {
    "model": "cms.poi",
    "pk": 142,
    "fields": {
      "region": 1,
      "created_date": "2022-06-10T17:08:16.446Z",
      "address": "Guardinistr. 90",
      "postcode": "81375",
      "city": "München",
      "country": "Deutschland",
      "latitude": 48.1185988,
      "longitude": 11.490761,
      "category": 7
    }
  },
  {
    "model": "cms.poi",
    "pk": 143,
    "fields": {
      "region": 1,
      "created_date": "2022-06-10T17:09:49.007Z",
      "address": "Hans-Preißinger-Straße 8",
      "postcode": "81379",
      "city": "München",
      "country": "Deutschland",
      "latitude": 48.1114478,
      "longitude": 11.554188,
      "category": 7
    }
  },
  {
    "model": "cms.poi",
    "pk": 144,
    "fields": {
      "region": 1,
      "created_date": "2022-06-10T17:18:58.125Z",
      "address": "Kapuzinerstr. 28",
      "postcode": "80337",
      "city": "München",
      "country": "Deutschland",
      "latitude": 48.125497,
      "longitude": 11.559648,
      "category": 7
    }
  },
  {
    "model": "cms.poi",
    "pk": 145,
    "fields": {
      "region": 1,
      "created_date": "2022-06-10T17:20:04.059Z",
      "address": "Fürstenrieder Str. 53",
      "postcode": "80686",
      "city": "München",
      "country": "Deutschland",
      "latitude": 48.1364024,
      "longitude": 11.5034358,
      "category": 8
    }
  },
  {
    "model": "cms.poi",
    "pk": 146,
    "fields": {
      "region": 1,
      "created_date": "2022-06-10T17:21:05.354Z",
      "address": "Augustenstr. 92",
      "postcode": "80798",
      "city": "München",
      "country": "Deutschland",
      "latitude": 48.151772,
      "longitude": 11.5648447,
      "category": 8
    }
  },
  {
    "model": "cms.poi",
    "pk": 147,
    "fields": {
      "region": 1,
      "created_date": "2022-06-10T17:22:15.955Z",
      "address": "Schleißheimer Straße 340",
      "postcode": "80809",
      "city": "München",
      "country": "Deutschland",
      "latitude": 48.1829878,
      "longitude": 11.5669535,
      "category": 8
    }
  },
  {
    "model": "cms.poi",
    "pk": 148,
    "fields": {
      "region": 1,
      "created_date": "2022-06-13T11:30:13.411Z",
      "address": "Richthofenstraße 3",
      "postcode": "85622",
      "city": "Feldkirchen",
      "country": "Deutschland",
      "latitude": 48.1496919,
      "longitude": 11.7294678,
      "archived": true,
      "category": 8
    }
  },
  {
    "model": "cms.poi",
    "pk": 149,
    "fields": {
      "region": 1,
      "created_date": "2022-06-13T11:38:35.249Z",
      "address": "Hanauer Str. 61a",
      "postcode": "80992",
      "city": "München",
      "country": "Deutschland",
      "latitude": 48.1817334,
      "longitude": 11.5290416,
      "category": 8
    }
  },
  {
    "model": "cms.poi",
    "pk": 150,
    "fields": {
      "region": 1,
      "created_date": "2022-06-13T11:39:54.710Z",
      "address": "Rosenheimer Straße 30-32",
      "postcode": "81669",
      "city": "München",
      "country": "Deutschland",
      "latitude": 48.130902750000004,
      "longitude": 11.589957183432936,
      "category": 8
    }
  },
  {
    "model": "cms.poi",
    "pk": 151,
    "fields": {
      "region": 1,
      "created_date": "2022-06-13T11:41:22.711Z",
      "address": "Nymphenburgerstr. 171b",
      "postcode": "80634",
      "city": "München",
      "country": "Deutschland",
      "latitude": 48.1530932,
      "longitude": 11.5332504,
      "category": 8
    }
  },
  {
    "model": "cms.poi",
    "pk": 152,
    "fields": {
      "region": 1,
      "created_date": "2022-06-13T11:42:22.995Z",
      "address": "Charles-de-Gaulle-Str. 2a",
      "postcode": "81737",
      "city": "München",
      "country": "Deutschland",
      "latitude": 48.1018265,
      "longitude": 11.6441307,
      "category": 8
    }
  },
  {
    "model": "cms.poi",
    "pk": 153,
    "fields": {
      "region": 1,
      "created_date": "2022-06-13T11:43:37.483Z",
      "address": "Bäckerstr. 9",
      "postcode": "81241",
      "city": "München",
      "country": "Deutschlandd",
      "latitude": 48.1471763,
      "longitude": 11.461596878599222,
      "category": 8
    }
  },
  {
    "model": "cms.poi",
    "pk": 154,
    "fields": {
      "region": 1,
      "created_date": "2022-06-13T11:44:37.870Z",
      "address": "Hohenzollernstr. 16",
      "postcode": "80801",
      "city": "München",
      "country": "Deutschland",
      "latitude": 48.1597198,
      "longitude": 11.5836786,
      "category": 8
    }
  },
  {
    "model": "cms.poi",
    "pk": 155,
    "fields": {
      "region": 1,
      "created_date": "2022-06-13T11:45:49.224Z",
      "address": "Albert-Roßhaupter-Str. 8",
      "postcode": "81369",
      "city": "München",
      "country": "Deutschland",
      "latitude": 48.1170783,
      "longitude": 11.5379376,
      "category": 8
    }
  },
  {
    "model": "cms.poi",
    "pk": 156,
    "fields": {
      "region": 1,
      "created_date": "2022-06-13T11:47:06.899Z",
      "address": "Wasserburger Landstr. 241",
      "postcode": "81827",
      "city": "München",
      "country": "Deutschland",
      "latitude": 48.1122188,
      "longitude": 11.7065929,
      "category": 8
    }
  },
  {
    "model": "cms.poi",
    "pk": 157,
    "fields": {
      "region": 1,
      "created_date": "2022-06-13T11:48:08.305Z",
      "address": "Schießstättstr. 20 c",
      "postcode": "80339",
      "city": "München",
      "country": "Deutschland",
      "latitude": 48.1364319,
      "longitude": 11.5455574,
      "category": 8
    }
  },
  {
    "model": "cms.poi",
    "pk": 158,
    "fields": {
      "region": 1,
      "created_date": "2022-06-13T11:57:52.501Z",
      "address": "Blumenstraße 11",
      "postcode": "80331",
      "city": "München",
      "country": "Deutschland",
      "latitude": 48.1331694,
      "longitude": 11.5734035,
      "category": 8
    }
  },
  {
    "model": "cms.poi",
    "pk": 159,
    "fields": {
      "region": 1,
      "created_date": "2022-06-13T11:59:48.868Z",
      "address": "Dachauer Straße 46",
      "postcode": "80335",
      "city": "München",
      "country": "Deutschland",
      "latitude": 48.1461431,
      "longitude": 11.5594453,
      "category": 8
    }
  },
  {
    "model": "cms.poi",
    "pk": 160,
    "fields": {
      "region": 1,
      "created_date": "2022-06-13T12:01:07.134Z",
      "address": "Albert-Schweitzer-Straße 62",
      "postcode": "81735",
      "city": "München",
      "country": "Deutschland",
      "latitude": 48.1072327,
      "longitude": 11.6446605,
      "category": 8
    }
  },
  {
    "model": "cms.poi",
    "pk": 161,
    "fields": {
      "region": 1,
      "created_date": "2022-06-13T12:03:43.355Z",
      "address": "Linkstraße 56",
      "postcode": "80933",
      "city": "München",
      "country": "Deutschland",
      "latitude": 48.2162651,
      "longitude": 11.5602445,
      "category": 2
    }
  },
  {
    "model": "cms.poi",
    "pk": 162,
    "fields": {
      "region": 1,
      "created_date": "2022-06-13T12:04:43.776Z",
      "address": "Schlüsselbergstraße 4",
      "postcode": "81673",
      "city": "München",
      "country": "Deutschland",
      "latitude": 48.129588,
      "longitude": 11.6221657,
      "category": 8
    }
  },
  {
    "model": "cms.poi",
    "pk": 163,
    "fields": {
      "region": 1,
      "created_date": "2022-06-13T12:06:02.212Z",
      "address": "Radolfzeller Str. 11a",
      "postcode": "81243",
      "city": "München",
      "country": "Deutschland",
      "latitude": 48.1495509,
      "longitude": 11.4352668,
      "category": 8
    }
  },
  {
    "model": "cms.poi",
    "pk": 164,
    "fields": {
      "region": 1,
      "created_date": "2022-06-13T12:07:12.725Z",
      "address": "Peschelanger 8",
      "postcode": "81735",
      "city": "München",
      "country": "Deutschland",
      "latitude": 48.1075655,
      "longitude": 11.6559896,
      "category": 1
    }
  },
  {
    "model": "cms.poi",
    "pk": 165,
    "fields": {
      "region": 1,
      "created_date": "2022-06-13T12:08:23.781Z",
      "address": "Willy-Brandt-Allee 18",
      "postcode": "81829",
      "city": "München",
      "country": "Deutschland",
      "latitude": 48.1330332,
      "longitude": 11.6987479,
      "category": 9
    }
  },
  {
    "model": "cms.poi",
    "pk": 166,
    "fields": {
      "region": 1,
      "created_date": "2022-06-13T12:09:33.116Z",
      "address": "Ligsalzstraße 2",
      "postcode": "80339",
      "city": "München",
      "country": "Deutschland",
      "latitude": 48.1381954,
      "longitude": 11.541875,
      "category": 9
    }
  },
  {
    "model": "cms.poi",
    "pk": 167,
    "fields": {
      "region": 1,
      "created_date": "2022-06-15T10:51:57.732Z",
      "address": "Kapuzinerstraße 26",
      "postcode": "80337",
      "city": "München",
      "country": "Deutschland",
      "latitude": 48.12524935,
      "longitude": 11.559326872538364,
      "category": 9
    }
  },
  {
    "model": "cms.poi",
    "pk": 168,
    "fields": {
      "region": 1,
      "created_date": "2022-06-15T10:53:15.190Z",
      "address": "Kapuzinerstraße 30",
      "postcode": "80337",
      "city": "München",
      "country": "Deutschland",
      "latitude": 48.1252274,
      "longitude": 11.5606983,
      "category": 9
    }
  },
  {
    "model": "cms.poi",
    "pk": 169,
    "fields": {
      "region": 1,
      "created_date": "2022-06-15T11:42:58.724Z",
      "address": "Pfälzer-Wald-Straße 64",
      "postcode": "81539",
      "city": "München",
      "country": "Deutschland",
      "latitude": 48.1084531,
      "longitude": 11.59840965469866,
      "category": 5
    }
  },
  {
    "model": "cms.poi",
    "pk": 170,
    "fields": {
      "region": 1,
      "created_date": "2022-06-15T12:12:56.059Z",
      "address": "Helfenrieder Straße 12",
      "postcode": "81379",
      "city": "München",
      "country": "Deutschland",
      "latitude": 48.0971046,
      "longitude": 11.5174335,
      "category": 9
    }
  },
  {
    "model": "cms.poi",
    "pk": 171,
    "fields": {
      "region": 1,
      "created_date": "2022-06-15T12:21:34.527Z",
      "address": "St.-Martin-Straße 112",
      "postcode": "81669",
      "city": "München",
      "country": "Deutschland",
      "latitude": 48.1198545,
      "longitude": 11.6026517,
      "category": 9
    }
  },
  {
    "model": "cms.poi",
    "pk": 172,
    "fields": {
      "region": 1,
      "created_date": "2022-06-15T13:12:54.389Z",
      "address": "Lindwurmstraße 45",
      "postcode": "80337",
      "city": "München",
      "country": "Deutschland",
      "latitude": 48.1305479,
      "longitude": 11.5609278,
      "category": 9
    }
  },
  {
    "model": "cms.poi",
    "pk": 173,
    "fields": {
      "region": 1,
      "created_date": "2022-06-21T08:33:01.110Z",
      "address": "Kistlerhofstraße 127",
      "postcode": "81379",
      "city": "München",
      "country": "Deutschland",
      "latitude": 48.094269499999996,
      "longitude": 11.51696274546681,
      "category": 9
    }
  },
  {
    "model": "cms.poi",
    "pk": 174,
    "fields": {
      "region": 1,
      "created_date": "2022-06-22T13:35:08.432Z",
      "address": "Valpichlerstraße 36",
      "postcode": "80686",
      "city": "München",
      "country": "Deutschland",
      "latitude": 48.137321549999996,
      "longitude": 11.507498999130593,
      "category": 7
    }
  },
  {
    "model": "cms.poi",
    "pk": 175,
    "fields": {
      "region": 1,
      "created_date": "2022-06-22T14:06:33.088Z",
      "address": "Sendlinger Straße 7",
      "postcode": "80331",
      "city": "München",
      "country": "Deutschland",
      "latitude": 48.1357845,
      "longitude": 11.572326,
      "category": 9
    }
  },
  {
    "model": "cms.poi",
    "pk": 176,
    "fields": {
      "region": 1,
      "created_date": "2022-06-22T14:10:07.145Z",
      "address": "Tübingerstraße 11",
      "postcode": "80686",
      "city": "München",
      "country": "Deutschland",
      "latitude": 48.132421,
      "longitude": 11.5257469,
      "category": 9
    }
  },
  {
    "model": "cms.poi",
    "pk": 177,
    "fields": {
      "region": 1,
      "created_date": "2022-06-23T08:41:08.211Z",
      "address": "Arnulfstraße 3",
      "postcode": "80335",
      "city": "München",
      "country": "Deutschland",
      "latitude": 48.14146,
      "longitude": 11.55766,
      "category": 9
    }
  },
  {
    "model": "cms.poi",
    "pk": 178,
    "fields": {
      "region": 1,
      "created_date": "2022-06-23T08:45:48.857Z",
      "address": "Bayerstraße 28 a",
      "postcode": "80335",
      "city": "München",
      "country": "Deutschland",
      "latitude": 48.1390409,
      "longitude": 11.5488145,
      "category": 9
    }
  },
  {
    "model": "cms.poi",
    "pk": 179,
    "fields": {
      "region": 1,
      "created_date": "2022-06-23T08:47:58.900Z",
      "address": "Herzog-Wilhelm-Straße 16",
      "postcode": "80331",
      "city": "München",
      "country": "Deutschland",
      "latitude": 48.136283,
      "longitude": 11.5661582,
      "category": 9
    }
  },
  {
    "model": "cms.poi",
    "pk": 180,
    "fields": {
      "region": 1,
      "created_date": "2022-06-23T08:55:59.600Z",
      "address": "Türkenstraße 103",
      "postcode": "80799",
      "city": "München",
      "country": "Deutschland",
      "latitude": 48.1545175,
      "longitude": 11.578606,
      "category": 9
    }
  },
  {
    "model": "cms.poi",
    "pk": 181,
    "fields": {
      "region": 1,
      "created_date": "2022-06-23T08:59:22.317Z",
      "address": "Bodenseestr. 226",
      "postcode": "81243",
      "city": "München",
      "country": "Deutschland",
      "latitude": 48.1437944,
      "longitude": 11.4257386,
      "category": 9
    }
  },
  {
    "model": "cms.poi",
    "pk": 182,
    "fields": {
      "region": 1,
      "created_date": "2022-06-23T09:02:12.432Z",
      "address": "Lindenschmitstraße 37",
      "postcode": "81371",
      "city": "München",
      "country": "Deutschland",
      "latitude": 48.1183585,
      "longitude": 11.5481817,
      "category": 10
    }
  },
  {
    "model": "cms.poi",
    "pk": 183,
    "fields": {
      "region": 1,
      "created_date": "2022-06-23T09:06:29.090Z",
      "address": "Albert-Schweitzer-Straße 66",
      "postcode": "81735",
      "city": "München",
      "country": "Deutschland",
      "latitude": 48.1072139,
      "longitude": 11.6447742,
      "category": 10
    }
  },
  {
    "model": "cms.poi",
    "pk": 184,
    "fields": {
      "region": 1,
      "created_date": "2022-06-23T09:08:37.889Z",
      "address": "Blodigstr. 4",
      "postcode": "80933",
      "city": "München",
      "country": "Deutschland",
      "latitude": 48.21352095,
      "longitude": 11.557346062551634,
      "category": 10
    }
  },
  {
    "model": "cms.poi",
    "pk": 185,
    "fields": {
      "region": 1,
      "created_date": "2022-06-23T09:10:55.027Z",
      "address": "Landwehrstr. 15",
      "postcode": "80336",
      "city": "München",
      "country": "Deutschland",
      "latitude": 48.1358081,
      "longitude": 11.5624295,
      "category": 10
    }
  },
  {
    "model": "cms.poi",
    "pk": 186,
    "fields": {
      "region": 1,
      "created_date": "2022-06-23T09:12:42.062Z",
      "address": "Echardinger Str. 63",
      "postcode": "81671",
      "city": "München",
      "country": "Deutschland",
      "latitude": 48.1206732,
      "longitude": 11.6229248,
      "category": 10
    }
  },
  {
    "model": "cms.poi",
    "pk": 187,
    "fields": {
      "region": 1,
      "created_date": "2022-06-23T09:26:03.532Z",
      "address": "Dachauer Str. 48",
      "postcode": "80335",
      "city": "München",
      "country": "Deutschland",
      "latitude": 48.1462764,
      "longitude": 11.5594155,
      "category": 10
    }
  },
  {
    "model": "cms.poi",
    "pk": 188,
    "fields": {
      "region": 1,
      "created_date": "2022-06-23T09:27:06.470Z",
      "address": "Werner-Eckert-Str. 11",
      "postcode": "81829",
      "city": "München",
      "country": "Deutschland",
      "latitude": 48.1344639,
      "longitude": 11.6884885,
      "category": 10
    }
  },
  {
    "model": "cms.poi",
    "pk": 189,
    "fields": {
      "region": 1,
      "created_date": "2022-06-24T09:53:39.076Z",
      "address": "Claude-Lorrain-Str. 25",
      "postcode": "81543",
      "city": "München",
      "country": "Deutschland",
      "latitude": 48.1193298,
      "longitude": 11.5697805,
      "category": 10
    }
  },
  {
    "model": "cms.poi",
    "pk": 190,
    "fields": {
      "region": 1,
      "created_date": "2022-06-27T07:07:46.599Z",
      "address": "Marienplatz",
      "postcode": "80331",
      "city": "München",
      "country": "Deutschland",
      "latitude": 48.13744,
      "longitude": 11.57544,
      "category": 10
    }
  },
  {
    "model": "cms.poi",
    "pk": 191,
    "fields": {
      "region": 1,
      "created_date": "2022-06-27T07:38:41.117Z",
      "address": "Wettersteinplatz",
      "postcode": "81547",
      "city": "München",
      "country": "Deutschland",
      "latitude": 48.10845,
      "longitude": 11.57613,
      "category": 10
    }
  },
  {
    "model": "cms.poi",
    "pk": 192,
    "fields": {
      "region": 1,
      "created_date": "2022-06-27T08:01:53.736Z",
      "address": "Bayerstraße 10A",
      "postcode": "80335",
      "city": "München",
      "country": "Deutschland",
      "latitude": 48.14049,
      "longitude": 11.56034,
      "category": 10
    }
  },
  {
    "model": "cms.poi",
    "pk": 193,
    "fields": {
      "region": 1,
      "created_date": "2022-06-27T09:02:45.458Z",
      "address": "Weißenseepark München",
      "postcode": "81539",
      "city": "München",
      "country": "Deutschland",
      "latitude": 48.10844,
      "longitude": 11.58663,
      "location_on_map": false,
      "category": 10
    }
  },
  {
    "model": "cms.poi",
    "pk": 194,
    "fields": {
      "region": 1,
      "created_date": "2022-06-29T12:31:35.305Z",
      "address": "Streitfeldstraße 23",
      "postcode": "81673",
      "city": "München",
      "country": "Deutschland",
      "latitude": 48.1316075,
      "longitude": 11.6198507,
      "category": 10
    }
  },
  {
    "model": "cms.poi",
    "pk": 195,
    "fields": {
      "region": 1,
      "created_date": "2022-06-29T12:33:09.068Z",
      "address": "Knorrstraße 101-103",
      "postcode": "80807",
      "city": "München",
      "country": "Deutschland",
      "latitude": 48.1817703,
      "longitude": 11.5730814,
      "category": 10
    }
  },
  {
    "model": "cms.poi",
    "pk": 196,
    "fields": {
      "region": 1,
      "created_date": "2022-06-29T12:34:43.873Z",
      "address": "Werner-Schlierf-Straße 9",
      "postcode": "81539",
      "city": "München",
      "country": "Deutschland",
      "latitude": 48.1101588,
      "longitude": 11.5800983,
      "category": 11
    }
  },
  {
    "model": "cms.poi",
    "pk": 197,
    "fields": {
      "region": 1,
      "created_date": "2022-06-29T12:35:55.914Z",
      "address": "Ridlerstraße 75",
      "postcode": "80339",
      "city": "München",
      "country": "Deutschland",
      "latitude": 48.1365315,
      "longitude": 11.5279989,
      "category": 11
    }
  },
  {
    "model": "cms.poi",
    "pk": 198,
    "fields": {
      "region": 1,
      "created_date": "2022-06-29T12:38:08.377Z",
      "address": "Schwanthalerstraße 62",
      "postcode": "80336",
      "city": "München",
      "country": "Deutschland",
      "latitude": 48.1375916,
      "longitude": 11.5551047,
      "category": 11
    }
  },
  {
    "model": "cms.poi",
    "pk": 199,
    "fields": {
      "region": 1,
      "created_date": "2022-06-29T12:39:36.302Z",
      "address": "Ehrenbreitsteiner Straße 24",
      "postcode": "80993",
      "city": "München",
      "country": "Deutschland",
      "latitude": 48.184486,
      "longitude": 11.5298664,
      "category": 11
    }
  },
  {
    "model": "cms.poi",
    "pk": 200,
    "fields": {
      "region": 1,
      "created_date": "2022-06-29T12:41:45.968Z",
      "address": "Orleansplatz 11",
      "postcode": "81667",
      "city": "München",
      "country": "Deutschland",
      "latitude": 48.12731395,
      "longitude": 11.603901563398637,
      "category": 11
    }
  },
  {
    "model": "cms.poi",
    "pk": 201,
    "fields": {
      "region": 1,
      "created_date": "2022-06-29T12:43:09.041Z",
      "address": "Landsberger Straße 486",
      "postcode": "81241",
      "city": "München",
      "country": "Deutschland",
      "latitude": 48.1469496,
      "longitude": 11.462545859076716,
      "category": 11
    }
  },
  {
    "model": "cms.poi",
    "pk": 202,
    "fields": {
      "region": 1,
      "created_date": "2022-06-29T12:44:03.169Z",
      "address": "Schertlinstraße 2",
      "postcode": "81379",
      "city": "München",
      "country": "Deutschland",
      "latitude": 48.0972395,
      "longitude": 11.515920091650397,
      "category": 11
    }
  },
  {
    "model": "cms.poi",
    "pk": 203,
    "fields": {
      "region": 1,
      "created_date": "2022-06-29T12:45:33.277Z",
      "address": "Thomas-Dehler-Straße 16",
      "postcode": "81737",
      "city": "München",
      "country": "Deutschland",
      "latitude": 48.0996616,
      "longitude": 11.64494,
      "category": 11
    }
  },
  {
    "model": "cms.poi",
    "pk": 204,
    "fields": {
      "region": 1,
      "created_date": "2022-06-29T12:46:26.993Z",
      "address": "Heidemannstraße 170",
      "postcode": "80939",
      "city": "München",
      "country": "Deutschland",
      "latitude": 48.19929345,
      "longitude": 11.60740569965339,
      "category": 11
    }
  },
  {
    "model": "cms.poi",
    "pk": 205,
    "fields": {
      "region": 1,
      "created_date": "2022-06-29T12:48:06.525Z",
      "address": "Meindlstraße 16",
      "postcode": "81373",
      "city": "München",
      "country": "Deutschland",
      "latitude": 48.1176953,
      "longitude": 11.5377997,
      "category": 11
    }
  },
  {
    "model": "cms.poi",
    "pk": 206,
    "fields": {
      "region": 1,
      "created_date": "2022-06-29T12:51:33.255Z",
      "address": "Franziskanerstraße 6-8",
      "postcode": "81669",
      "city": "München",
      "country": "Deutschland",
      "latitude": 48.12776695,
      "longitude": 11.593139078646958,
      "category": 11
    }
  },
  {
    "model": "cms.poi",
    "pk": 207,
    "fields": {
      "region": 1,
      "created_date": "2022-06-29T12:56:15.562Z",
      "address": "Mühldorfstraße 1",
      "postcode": "81671",
      "city": "München",
      "country": "Deutschland",
      "latitude": 48.1289928,
      "longitude": 11.6100191,
      "category": 11
    }
  },
  {
    "model": "cms.poi",
    "pk": 208,
    "fields": {
      "region": 1,
      "created_date": "2022-06-30T09:38:08.791Z",
      "address": "Stäblistraße",
      "postcode": "81476",
      "city": "München",
      "country": "Deutschland",
      "latitude": 48.08684,
      "longitude": 11.50119,
      "category": 11
    }
  },
  {
    "model": "cms.poi",
    "pk": 209,
    "fields": {
      "region": 1,
      "created_date": "2022-07-11T12:47:42.863Z",
      "address": "Mühldorfstraße 6",
      "postcode": "81671",
      "city": "München",
      "country": "Deutschland",
      "latitude": 48.12985,
      "longitude": 11.60994,
      "category": 11
    }
  },
  {
    "model": "cms.poi",
    "pk": 210,
    "fields": {
      "region": 1,
      "created_date": "2022-07-12T09:03:03.165Z",
      "address": "Prinzregentenstraße 1",
      "postcode": "80538",
      "city": "München",
      "country": "Deutschland",
      "latitude": 48.1438292,
      "longitude": 11.5858343,
      "category": 11
    }
  },
  {
    "model": "cms.poi",
    "pk": 211,
    "fields": {
      "region": 1,
      "created_date": "2022-07-13T13:38:33.165Z",
      "address": "Nymphenburger Straße 50",
      "postcode": "80335",
      "city": "München",
      "country": "Deutschland",
      "latitude": 48.1494381,
      "longitude": 11.5498903,
      "category": 11
    }
  },
  {
    "model": "cms.poi",
    "pk": 212,
    "fields": {
      "region": 1,
      "created_date": "2022-07-25T07:49:41.982Z",
      "address": "Luisenstraße 33",
      "postcode": "80333",
      "city": "München",
      "country": "Deutschland",
      "latitude": 48.1466458,
      "longitude": 11.5633122,
      "category": 11
    }
  },
  {
    "model": "cms.poi",
    "pk": 213,
    "fields": {
      "region": 1,
      "created_date": "2022-07-25T10:17:56.864Z",
      "address": "Hildegard-von-Bingen-Anger 1-3",
      "postcode": "80397",
      "city": "München",
      "country": "Deutschland",
      "latitude": 48.21005,
      "longitude": 11.56969,
      "category": 12
    }
  },
  {
    "model": "cms.poi",
    "pk": 214,
    "fields": {
      "region": 1,
      "created_date": "2022-07-26T09:00:17.460Z",
      "address": "Orleansstraße 2",
      "postcode": "81669",
      "city": "München",
      "country": "Deutschland",
      "latitude": 48.1239609,
      "longitude": 11.5973399,
      "category": 12
    }
  },
  {
    "model": "cms.poi",
    "pk": 215,
    "fields": {
      "region": 1,
      "created_date": "2022-07-28T10:50:56.238Z",
      "address": "Rosenheimer Str. 135",
      "postcode": "81667",
      "city": "München",
      "country": "Deutschland",
      "latitude": 48.12559,
      "longitude": 11.599233292243106,
      "category": 12,
      "opening_hours": [
        {
          "allDay": false,
          "closed": false,
          "appointmentOnly": false,
          "timeSlots": [
            { "end": "13:00", "start": "10:00" },
            { "end": "18:00", "start": "15:00" }
          ]
        },
        {
          "allDay": false,
          "closed": false,
          "appointmentOnly": false,
          "timeSlots": [
            { "end": "13:00", "start": "10:00" },
            { "end": "18:00", "start": "15:00" }
          ]
        },
        { "allDay": false, "closed": true, "appointmentOnly": false, "timeSlots": [] },
        {
          "allDay": false,
          "closed": false,
          "appointmentOnly": false,
          "timeSlots": [
            { "end": "13:00", "start": "10:00" },
            { "end": "18:00", "start": "15:00" }
          ]
        },
        {
          "allDay": false,
          "closed": false,
          "appointmentOnly": false,
          "timeSlots": [{ "end": "14:00", "start": "10:00" }]
        },
        { "allDay": false, "closed": true, "appointmentOnly": false, "timeSlots": [] },
        { "allDay": false, "closed": true, "appointmentOnly": false, "timeSlots": [] }
      ]
    }
  },
  {
    "model": "cms.poi",
    "pk": 216,
    "fields": {
      "region": 1,
      "created_date": "2022-07-28T10:52:08.217Z",
      "address": "Bad-Schachener-Str. 2 a",
      "postcode": "81671",
      "city": "München",
      "country": "Deutschland",
      "latitude": 48.1204,
      "longitude": 11.61352,
      "category": 12
    }
  },
  {
    "model": "cms.poi",
    "pk": 217,
    "fields": {
      "region": 1,
      "created_date": "2022-08-29T15:46:26.196Z",
      "address": "Dachauerstraße 122",
      "postcode": "80637",
      "city": "München",
      "country": "Deutschland",
      "latitude": 48.1617568,
      "longitude": 11.5449191,
      "category": 12
    }
  },
  {
    "model": "cms.poi",
    "pk": 218,
    "fields": {
      "region": 1,
      "created_date": "2022-09-06T10:55:16.687Z",
      "address": "Hansastraße 39",
      "postcode": "81373",
      "city": "München",
      "country": "Deutschland",
      "latitude": 48.129098459933196,
      "longitude": 11.534379381334533,
      "category": 12
    }
  },
  {
    "model": "cms.poi",
    "pk": 219,
    "fields": {
      "region": 1,
      "created_date": "2022-09-07T14:14:26.751Z",
      "address": "Westendstraße 151",
      "postcode": "80339",
      "city": "München",
      "country": "Deutschland",
      "latitude": 48.1375999,
      "longitude": 11.5296017,
      "category": 12
    }
  },
  {
    "model": "cms.poi",
    "pk": 220,
    "fields": {
      "region": 1,
      "created_date": "2022-09-08T13:20:50.804Z",
      "address": "Neuschwansteinplatz 12",
      "postcode": "81549",
      "city": "München",
      "country": "Deutschland",
      "latitude": 48.1060734,
      "longitude": 11.5925336,
      "category": 12
    }
  },
  {
    "model": "cms.poi",
    "pk": 221,
    "fields": {
      "region": 1,
      "created_date": "2022-09-12T10:46:30.153Z",
      "address": "Ruppertstraße 19",
      "postcode": "80337",
      "city": "München",
      "country": "Deutschland",
      "latitude": 48.12436,
      "longitude": 11.55075,
      "category": 12
    }
  },
  {
    "model": "cms.poi",
    "pk": 222,
    "fields": {
      "region": 1,
      "created_date": "2022-10-06T08:43:14.059Z",
      "address": "Traunsteinerstr. 4",
      "postcode": "81549",
      "city": "München",
      "country": "Deutschland",
      "latitude": 48.1059461,
      "longitude": 11.5868999370073,
      "category": 12
    }
  },
  {
    "model": "cms.poi",
    "pk": 223,
    "fields": {
      "region": 1,
      "created_date": "2022-10-12T16:05:13.106Z",
      "address": "Speicherstr. 21",
      "postcode": "81671",
      "city": "München",
      "country": "Deutschland",
      "latitude": 48.1232256,
      "longitude": 11.6082084,
      "category": 12,
      "opening_hours": [
        {
          "allDay": false,
          "closed": false,
          "appointmentOnly": false,
          "timeSlots": [
            { "end": "13:00", "start": "10:00" },
            { "end": "18:00", "start": "15:00" }
          ]
        },
        {
          "allDay": false,
          "closed": false,
          "appointmentOnly": false,
          "timeSlots": [
            { "end": "13:00", "start": "10:00" },
            { "end": "18:00", "start": "15:00" }
          ]
        },
        { "allDay": false, "closed": true, "appointmentOnly": false, "timeSlots": [] },
        {
          "allDay": false,
          "closed": false,
          "appointmentOnly": false,
          "timeSlots": [
            { "end": "13:00", "start": "10:00" },
            { "end": "18:00", "start": "15:00" }
          ]
        },
        {
          "allDay": false,
          "closed": false,
          "appointmentOnly": false,
          "timeSlots": [{ "end": "14:00", "start": "10:00" }]
        },
        { "allDay": false, "closed": true, "appointmentOnly": false, "timeSlots": [] },
        { "allDay": false, "closed": true, "appointmentOnly": false, "timeSlots": [] }
      ]
    }
  },
  {
    "model": "cms.poi",
    "pk": 224,
    "fields": {
      "region": 1,
      "created_date": "2022-10-12T16:33:46.950Z",
      "address": "Dachauer Str. 90",
      "postcode": "80335",
      "city": "München",
      "country": "Deutschland",
      "latitude": 48.1508928,
      "longitude": 11.5581995,
      "category": 12
    }
  },
  {
    "model": "cms.poi",
    "pk": 225,
    "fields": {
      "region": 1,
      "created_date": "2022-10-13T13:54:27.172Z",
      "address": "Schwanthalerstr. 80",
      "postcode": "80336",
      "city": "München",
      "country": "Deutschland",
      "latitude": 48.1380782,
      "longitude": 11.5528869357397,
      "category": 12
    }
  },
  {
    "model": "cms.poi",
    "pk": 226,
    "fields": {
      "region": 1,
      "created_date": "2022-10-13T14:24:08.361Z",
      "address": "Ringseisstr. 11 a",
      "postcode": "80337",
      "city": "München",
      "country": "Deutschland",
      "latitude": 48.129615479902434,
      "longitude": 11.561426040477654,
      "category": 12
    }
  },
  {
    "model": "cms.poi",
    "pk": 227,
    "fields": {
      "region": 1,
      "created_date": "2022-10-13T15:18:22.512Z",
      "address": "Müllerstraße 14",
      "postcode": "80469",
      "city": "München",
      "country": "Deutschland",
      "latitude": 48.1325626,
      "longitude": 11.5734489,
      "category": 12
    }
  },
  {
    "model": "cms.poi",
    "pk": 228,
    "fields": {
      "region": 1,
      "created_date": "2022-10-13T15:50:32.896Z",
      "address": "Dachauer Straße 50",
      "postcode": "80335",
      "city": "München",
      "country": "Deutschland",
      "latitude": 48.1464303,
      "longitude": 11.5594458,
      "category": 12
    }
  },
  {
    "model": "cms.poi",
    "pk": 229,
    "fields": {
      "region": 1,
      "created_date": "2022-10-21T12:39:57.363Z",
      "address": "Balanstraße 208",
      "postcode": "81549",
      "city": "München",
      "country": "Deutschland",
      "latitude": 48.1040367,
      "longitude": 11.6048361,
      "category": null
    }
  },
  {
    "model": "cms.poi",
    "pk": 230,
    "fields": {
      "region": 1,
      "created_date": "2022-10-21T16:50:16.367Z",
      "address": "Saarstraße 5",
      "postcode": "80797",
      "city": "München",
      "country": "Deutschland",
      "latitude": 48.1645351,
      "longitude": 11.5614985,
      "category": null
    }
  },
  {
    "model": "cms.poi",
    "pk": 231,
    "fields": {
      "region": 1,
      "created_date": "2022-10-24T10:12:29.927Z",
      "address": "Fritz-Schäffer-Straße 9",
      "postcode": "81737",
      "city": "München",
      "country": "Deutschland",
      "latitude": 48.1041943,
      "longitude": 11.6445093,
      "category": null
    }
  },
  {
    "model": "cms.poi",
    "pk": 232,
    "fields": {
      "region": 1,
      "created_date": "2022-10-24T10:25:21.533Z",
      "address": "Giesinger Bahnhofplatz 1",
      "postcode": "81539",
      "city": "München",
      "country": "Deutschland",
      "latitude": 48.11033415,
      "longitude": 11.596228454664521,
      "category": null,
      "opening_hours": [
        {
          "allDay": false,
          "closed": false,
          "appointmentOnly": false,
          "timeSlots": [
            { "end": "13:00", "start": "10:00" },
            { "end": "18:00", "start": "15:00" }
          ]
        },
        {
          "allDay": false,
          "closed": false,
          "appointmentOnly": false,
          "timeSlots": [
            { "end": "13:00", "start": "10:00" },
            { "end": "18:00", "start": "15:00" }
          ]
        },
        { "allDay": false, "closed": true, "appointmentOnly": false, "timeSlots": [] },
        {
          "allDay": false,
          "closed": false,
          "appointmentOnly": false,
          "timeSlots": [
            { "end": "13:00", "start": "10:00" },
            { "end": "18:00", "start": "15:00" }
          ]
        },
        {
          "allDay": false,
          "closed": false,
          "appointmentOnly": false,
          "timeSlots": [{ "end": "14:00", "start": "10:00" }]
        },
        { "allDay": false, "closed": true, "appointmentOnly": false, "timeSlots": [] },
        { "allDay": false, "closed": true, "appointmentOnly": false, "timeSlots": [] }
      ]
    }
  },
  {
    "model": "cms.poi",
    "pk": 233,
    "fields": {
      "region": 1,
      "created_date": "2022-10-26T09:02:55.271Z",
      "address": "Ruppertstraße 11",
      "postcode": "80337",
      "city": "München",
      "country": "Deutschland",
      "latitude": 48.1237496,
      "longitude": 11.551733466758938,
      "category": null
    }
  },
  {
    "model": "cms.poi",
    "pk": 234,
    "fields": {
      "region": 1,
      "created_date": "2022-10-27T10:54:48.150Z",
      "address": "Perlacher Straße 103",
      "postcode": "81539",
      "city": "Münchenn",
      "country": "Deutschland",
      "latitude": 48.11013995,
      "longitude": 11.590092480302086,
      "category": null
    }
  },
  {
    "model": "cms.poi",
    "pk": 235,
    "fields": {
      "region": 1,
      "created_date": "2022-10-27T12:06:16.901Z",
      "address": "Werinherstraße 71",
      "postcode": "81541",
      "city": "MünchenMünchen",
      "country": "Deutschland",
      "latitude": 48.1151852,
      "longitude": 11.5947921,
      "category": null
    }
  },
  {
    "model": "cms.poi",
    "pk": 236,
    "fields": {
      "region": 1,
      "created_date": "2022-10-31T16:56:10.330Z",
      "address": "Marienplatz 8",
      "postcode": "80331",
      "city": "München",
      "country": "Deutschland",
      "latitude": 48.1373838,
      "longitude": 11.5760725,
      "category": null
    }
  },
  {
    "model": "cms.poi",
    "pk": 237,
    "fields": {
      "region": 1,
      "created_date": "2022-11-02T10:00:31.660Z",
      "address": "Arnulfstraße 197",
      "postcode": "80634",
      "city": "München",
      "country": "Deutschland",
      "latitude": 48.1491029,
      "longitude": 11.5232113,
      "category": null
    }
  },
  {
    "model": "cms.poi",
    "pk": 238,
    "fields": {
      "region": 1,
      "created_date": "2022-11-03T10:17:48.636Z",
      "address": "Goethestraße 12",
      "postcode": "80336",
      "city": "München",
      "country": "Deutschland",
      "latitude": 48.1377497,
      "longitude": 11.5583884,
      "category": null
    }
  },
  {
    "model": "cms.poi",
    "pk": 239,
    "fields": {
      "region": 1,
      "created_date": "2022-11-03T16:26:26.640Z",
      "address": "Schaffhauser Straße 17a,",
      "postcode": "81476",
      "city": "München",
      "country": "Deutschland",
      "latitude": 48.0965094,
      "longitude": 11.4958345,
      "category": null
    }
  },
  {
    "model": "cms.poi",
    "pk": 240,
    "fields": {
      "region": 1,
      "created_date": "2022-12-05T10:54:31.814Z",
      "address": "Rupprechtstraße 29",
      "postcode": "80636",
      "city": "München",
      "country": "Deutschland",
      "latitude": 48.1487866,
      "longitude": 11.5391363,
      "category": null
    }
  },
  {
    "model": "cms.poi",
    "pk": 241,
    "fields": {
      "region": 1,
      "created_date": "2022-12-05T12:30:09.224Z",
      "address": "Blumenstraße 29",
      "postcode": "80331",
      "city": "Müncheünchen",
      "country": "Deutschland",
      "latitude": 48.1317004,
      "longitude": 11.5707834,
      "category": null
    }
  },
  {
    "model": "cms.poi",
    "pk": 242,
    "fields": {
      "region": 1,
      "created_date": "2022-12-13T11:18:34.922Z",
      "address": "Menaristr. 1",
      "postcode": "80689",
      "city": "München",
      "country": "Deutschland",
      "latitude": 48.1283485,
      "longitude": 11.4941141,
      "category": null
    }
  },
  {
    "model": "cms.poi",
    "pk": 243,
    "fields": {
      "region": 1,
      "created_date": "2023-01-10T13:15:52.307Z",
      "address": "Guardinistraße 90",
      "postcode": "81375",
      "city": "München",
      "country": "Deutschland",
      "latitude": 48.1185988,
      "longitude": 11.490761,
      "category": null
    }
  },
  {
    "model": "cms.poi",
    "pk": 244,
    "fields": {
      "region": 1,
      "created_date": "2023-01-10T14:57:15.809Z",
      "address": "Schertlinstr. 4",
      "postcode": "81379",
      "city": "München",
      "country": "Deutschland",
      "latitude": 48.096914350000006,
      "longitude": 11.516340739192705,
      "category": null
    }
  },
  {
    "model": "cms.poi",
    "pk": 245,
    "fields": {
      "region": 1,
      "created_date": "2023-02-08T17:33:13.848Z",
      "address": "Hans-Preißinger-Str. 8",
      "postcode": "81379",
      "city": "München",
      "country": "Deutschland",
      "latitude": 48.1114478,
      "longitude": 11.554188,
      "category": null
    }
  },
  {
    "model": "cms.poi",
    "pk": 246,
    "fields": {
      "region": 1,
      "created_date": "2025-01-07T09:47:34.040Z",
      "address": "Wertachstraße 22",
      "postcode": "86159",
      "city": "Augsburg",
      "country": "Deutschland",
      "latitude": 48.378026750000004,
      "longitude": 10.885838680141244,
      "location_on_map": false,
      "icon": null,
      "archived": false,
      "category": 1,
      "temporarily_closed": false,
      "appointment_url": "",
      "opening_hours": [
        {
          "allDay": false,
          "closed": false,
          "timeSlots": [{ "end": "17:00", "start": "07:00" }],
          "appointmentOnly": false
        },
        {
          "allDay": false,
          "closed": false,
          "timeSlots": [{ "end": "17:00", "start": "07:00" }],
          "appointmentOnly": false
        },
        {
          "allDay": false,
          "closed": false,
          "timeSlots": [{ "end": "17:00", "start": "07:00" }],
          "appointmentOnly": false
        },
        {
          "allDay": false,
          "closed": false,
          "timeSlots": [{ "end": "17:00", "start": "07:00" }],
          "appointmentOnly": false
        },
        {
          "allDay": false,
          "closed": false,
          "timeSlots": [{ "end": "17:00", "start": "07:00" }],
          "appointmentOnly": false
        },
        { "allDay": false, "closed": true, "timeSlots": [], "appointmentOnly": false },
        { "allDay": false, "closed": true, "timeSlots": [], "appointmentOnly": false }
      ],
      "organization": null,
      "barrier_free": null
    }
  },
  {
    "model": "cms.poi",
    "pk": 247,
    "fields": {
      "region": 1,
      "created_date": "2025-01-07T10:22:52.931Z",
      "address": "Wolfgangstraße 2",
      "postcode": "86159",
      "city": "Augsburg",
      "country": "Deutschland",
      "latitude": 48.3781092,
      "longitude": 10.887578,
      "location_on_map": false,
      "icon": null,
      "archived": false,
      "category": 1,
      "temporarily_closed": false,
      "appointment_url": "",
      "opening_hours": [
        {
          "allDay": false,
          "closed": false,
          "timeSlots": [{ "end": "21:00", "start": "07:00" }],
          "appointmentOnly": false
        },
        {
          "allDay": false,
          "closed": false,
          "timeSlots": [{ "end": "21:00", "start": "07:00" }],
          "appointmentOnly": false
        },
        {
          "allDay": false,
          "closed": false,
          "timeSlots": [{ "end": "21:00", "start": "07:00" }],
          "appointmentOnly": false
        },
        {
          "allDay": false,
          "closed": false,
          "timeSlots": [{ "end": "21:00", "start": "07:00" }],
          "appointmentOnly": false
        },
        {
          "allDay": false,
          "closed": false,
          "timeSlots": [{ "end": "21:00", "start": "07:00" }],
          "appointmentOnly": false
        },
        {
          "allDay": false,
          "closed": false,
          "timeSlots": [{ "end": "21:00", "start": "07:00" }],
          "appointmentOnly": false
        },
        { "allDay": false, "closed": true, "timeSlots": [], "appointmentOnly": false }
      ],
      "organization": null,
      "barrier_free": null
    }
  },
  {
    "model": "cms.contact",
    "pk": 1,
    "fields": {
      "area_of_responsibility": "Lesekreis",
      "name": "Musterfrau",
      "location": 246,
      "email": "test@gmail.com",
      "phone_number": "066866867657",
      "website": "https://lesekreis.de",
      "archived": false,
      "last_updated": "2025-01-07T13:26:52.382Z",
      "created_date": "2025-01-07T13:26:32.991Z"
    }
  },
  {
    "model": "cms.contact",
    "pk": 2,
    "fields": {
      "area_of_responsibility": "",
      "name": "",
      "location": 246,
      "email": "cafe-tuerantuer@gmail.com",
      "phone_number": "0177899667",
      "website": "https://tuerantuer.org",
      "archived": false,
      "last_updated": "2025-01-08T08:41:33.491Z",
      "created_date": "2025-01-08T08:41:33.487Z"
    }
  },
  {
    "model": "cms.contact",
    "pk": 3,
    "fields": {
      "area_of_responsibility": "",
      "name": "",
      "location": 247,
      "email": "wertach-projektraum@gmail.com",
      "phone_number": "0877665554",
      "website": "https://wertach-projektraum.de",
      "archived": false,
      "last_updated": "2025-01-08T08:41:33.495Z",
      "created_date": "2025-01-08T08:41:33.494Z"
    }
  },
  {
    "model": "cms.poitranslation",
    "pk": 100,
    "fields": {
      "title": "Raum 2, LUISE werkt",
      "slug": "raum-2-luise-werkt",
      "status": "PUBLIC",
      "content": "",
      "language": 1,
      "version": 1,
      "last_updated": "2022-06-10T10:32:55.725Z",
      "creator": 1,
      "poi": 101,
      "meta_description": "Raum 2, LUISE werkt"
    }
  },
  {
    "model": "cms.poitranslation",
    "pk": 101,
    "fields": {
      "title": "Bellevue di Monaco",
      "slug": "bellevue-di-monaco-3",
      "status": "PUBLIC",
      "content": "",
      "language": 1,
      "version": 1,
      "last_updated": "2022-01-26T09:45:27Z",
      "creator": 1,
      "poi": 102,
      "meta_description": "Bellevue di Monaco"
    }
  },
  {
    "model": "cms.poitranslation",
    "pk": 102,
    "fields": {
      "title": "Johanniter-Akademie - Campus München",
      "slug": "johanniter-akademie-campus-muenchen",
      "status": "PUBLIC",
      "content": "",
      "language": 1,
      "version": 1,
      "last_updated": "2022-03-16T14:33:33Z",
      "creator": 1,
      "poi": 103,
      "meta_description": "Johanniter-Akademie - Campus München"
    }
  },
  {
    "model": "cms.poitranslation",
    "pk": 103,
    "fields": {
      "title": "Bellevue di Monaco",
      "slug": "bellevue-di-monaco",
      "status": "PUBLIC",
      "content": "",
      "language": 1,
      "version": 1,
      "last_updated": "2020-08-28T06:56:42Z",
      "creator": 1,
      "poi": 104,
      "meta_description": "Bellevue di Monaco"
    }
  },
  {
    "model": "cms.poitranslation",
    "pk": 104,
    "fields": {
      "title": "Fabi Milbertshofen",
      "slug": "fabi-milbertshofen",
      "status": "PUBLIC",
      "content": "",
      "language": 1,
      "version": 1,
      "last_updated": "2022-03-29T07:48:33Z",
      "creator": 1,
      "poi": 105,
      "meta_description": "Fabi Milbertshofen"
    }
  },
  {
    "model": "cms.poitranslation",
    "pk": 105,
    "fields": {
      "title": "Fabi Milbertshofen",
      "slug": "fabi-milbertshofen-2",
      "status": "PUBLIC",
      "content": "",
      "language": 1,
      "version": 1,
      "last_updated": "2022-03-29T07:48:33Z",
      "creator": 1,
      "poi": 106,
      "meta_description": "Fabi Milbertshofen"
    }
  },
  {
    "model": "cms.poitranslation",
    "pk": 106,
    "fields": {
      "title": "Projekt-Laden International Haidhausen",
      "slug": "projekt-laden-international-haidhausen",
      "status": "PUBLIC",
      "content": "",
      "language": 1,
      "version": 1,
      "last_updated": "2022-04-27T13:13:36Z",
      "creator": 1,
      "poi": 107,
      "meta_description": "Projekt-Laden International Haidhausen"
    }
  },
  {
    "model": "cms.poitranslation",
    "pk": 107,
    "fields": {
      "title": "Projekt-Laden International Haidhausen",
      "slug": "projekt-laden-international-haidhausen-2",
      "status": "PUBLIC",
      "content": "",
      "language": 1,
      "version": 1,
      "last_updated": "2022-04-27T13:13:36Z",
      "creator": 1,
      "poi": 108,
      "meta_description": "Projekt-Laden International Haidhausen"
    }
  },
  {
    "model": "cms.poitranslation",
    "pk": 108,
    "fields": {
      "title": "Fabi Neuperlach",
      "slug": "fabi-neuperlach",
      "status": "PUBLIC",
      "content": "",
      "language": 1,
      "version": 1,
      "last_updated": "2021-11-17T17:05:29Z",
      "creator": 1,
      "poi": 109,
      "meta_description": "Fabi Neuperlach"
    }
  },
  {
    "model": "cms.poitranslation",
    "pk": 109,
    "fields": {
      "title": "ClubIn Internationaler Treff",
      "slug": "clubin-internationaler-treff",
      "status": "PUBLIC",
      "content": "",
      "language": 1,
      "version": 1,
      "last_updated": "2022-05-05T15:25:06Z",
      "creator": 1,
      "poi": 110,
      "meta_description": "ClubIn Internationaler Treff"
    }
  },
  {
    "model": "cms.poitranslation",
    "pk": 110,
    "fields": {
      "title": "Hauptbahnhof",
      "slug": "hauptbahnhof",
      "status": "PUBLIC",
      "content": "",
      "language": 1,
      "version": 1,
      "last_updated": "2022-05-05T17:48:26Z",
      "creator": 1,
      "poi": 111,
      "meta_description": "Hauptbahnhof"
    }
  },
  {
    "model": "cms.poitranslation",
    "pk": 111,
    "fields": {
      "title": "ArrivalAid Büro",
      "slug": "arrivalaid-buero",
      "status": "PUBLIC",
      "content": "",
      "language": 1,
      "version": 1,
      "last_updated": "2022-06-10T11:57:06.578Z",
      "creator": 1,
      "poi": 112,
      "meta_description": "ArrivalAid Büro"
    }
  },
  {
    "model": "cms.poitranslation",
    "pk": 112,
    "fields": {
      "title": "DAV Kletter- und Boulderzentrum München-Süd",
      "slug": "dav-kletter-und-boulderzentrum-muenchen-sued",
      "status": "PUBLIC",
      "content": "",
      "language": 1,
      "version": 1,
      "last_updated": "2022-04-21T14:22:01Z",
      "creator": 1,
      "poi": 113,
      "meta_description": "DAV Kletter- und Boulderzentrum München-Süd"
    }
  },
  {
    "model": "cms.poitranslation",
    "pk": 113,
    "fields": {
      "title": "DAV Kletter- und Boulderzentrum München-Süd",
      "slug": "dav-kletter-und-boulderzentrum-muenchen-sued-2",
      "status": "PUBLIC",
      "content": "",
      "language": 1,
      "version": 1,
      "last_updated": "2022-04-21T14:22:01Z",
      "creator": 1,
      "poi": 114,
      "meta_description": "DAV Kletter- und Boulderzentrum München-Süd"
    }
  },
  {
    "model": "cms.poitranslation",
    "pk": 114,
    "fields": {
      "title": "Bildungs- und Integrationszentrum der Johannniter-Unfall-Hilfe e.V.",
      "slug": "bildungs-und-integrationszentrum-der-johannniter-unfall-hilfe-e-v",
      "status": "PUBLIC",
      "content": "",
      "language": 1,
      "version": 1,
      "last_updated": "2022-03-18T11:15:25Z",
      "creator": 1,
      "poi": 115,
      "meta_description": "Bildungs- und Integrationszentrum der Johannniter-Unfall-Hilfe e.V."
    }
  },
  {
    "model": "cms.poitranslation",
    "pk": 115,
    "fields": {
      "title": "Bildungs- und Integrationszentrum der Johannniter-Unfall-Hilfe e.V.",
      "slug": "bildungs-und-integrationszentrum-der-johannniter-unfall-hilfe-e-v-2",
      "status": "PUBLIC",
      "content": "",
      "language": 1,
      "version": 1,
      "last_updated": "2022-03-18T11:15:25Z",
      "creator": 1,
      "poi": 116,
      "meta_description": "Bildungs- und Integrationszentrum der Johannniter-Unfall-Hilfe e.V."
    }
  },
  {
    "model": "cms.poitranslation",
    "pk": 116,
    "fields": {
      "title": "Stadtbibliothek Hasenbergl",
      "slug": "stadtbibliothek-hasenbergl",
      "status": "PUBLIC",
      "content": "",
      "language": 1,
      "version": 1,
      "last_updated": "2022-06-10T17:15:57.566Z",
      "creator": 1,
      "poi": 117,
      "meta_description": "Stadtbibliothek Hasenbergl"
    }
  },
  {
    "model": "cms.poitranslation",
    "pk": 117,
    "fields": {
      "title": "Altes Rathaus",
      "slug": "altes-rathaus",
      "status": "PUBLIC",
      "content": "",
      "language": 1,
      "version": 1,
      "last_updated": "2022-05-24T10:13:39.449Z",
      "creator": 1,
      "poi": 118,
      "meta_description": "Altes Rathaus"
    }
  },
  {
    "model": "cms.poitranslation",
    "pk": 118,
    "fields": {
      "title": "Projektladen International Haidhausen",
      "slug": "projektladen-international-haidhausen",
      "status": "PUBLIC",
      "content": "",
      "language": 1,
      "version": 1,
      "last_updated": "2022-05-25T13:00:34.268Z",
      "creator": 1,
      "poi": 119,
      "meta_description": "Projektladen International Haidhausen"
    }
  },
  {
    "model": "cms.poitranslation",
    "pk": 119,
    "fields": {
      "title": "InitiativGruppe - Interkulturelle Begegnung und Bildung e.V.",
      "slug": "initiativgruppe-interkulturelle-begegnung-und-bildung-ev",
      "status": "PUBLIC",
      "content": "",
      "language": 1,
      "version": 1,
      "last_updated": "2022-05-27T08:50:44.712Z",
      "creator": 1,
      "poi": 120,
      "meta_description": "InitiativGruppe - Interkulturelle Begegnung und Bildung e.V."
    }
  },
  {
    "model": "cms.poitranslation",
    "pk": 120,
    "fields": {
      "title": "Verein für Sozialarbeit e.V.",
      "slug": "verein-für-sozialarbeit-ev",
      "status": "PUBLIC",
      "content": "",
      "language": 1,
      "version": 1,
      "last_updated": "2022-05-31T10:42:56.103Z",
      "creator": 1,
      "poi": 121,
      "meta_description": "Verein für Sozialarbeit e.V."
    }
  },
  {
    "model": "cms.poitranslation",
    "pk": 121,
    "fields": {
      "title": "Wiki-Büro",
      "slug": "wiki-büro",
      "status": "PUBLIC",
      "content": "",
      "language": 1,
      "version": 1,
      "last_updated": "2022-05-31T12:48:09.434Z",
      "creator": 1,
      "poi": 122,
      "meta_description": "Wiki-Büro"
    }
  },
  {
    "model": "cms.poitranslation",
    "pk": 122,
    "fields": {
      "title": "Mathäser Filmpalast",
      "slug": "mathäser-filmpalast",
      "status": "PUBLIC",
      "content": "",
      "language": 1,
      "version": 1,
      "last_updated": "2022-06-01T14:50:02.389Z",
      "creator": 1,
      "poi": 123,
      "meta_description": "Mathäser Filmpalast"
    }
  },
  {
    "model": "cms.poitranslation",
    "pk": 123,
    "fields": {
      "title": "KVR München",
      "slug": "kvr-münchen",
      "status": "PUBLIC",
      "content": "",
      "language": 1,
      "version": 1,
      "last_updated": "2022-06-10T10:32:25.584Z",
      "creator": 1,
      "poi": 124,
      "meta_description": "KVR München"
    }
  },
  {
    "model": "cms.poitranslation",
    "pk": 124,
    "fields": {
      "title": "Café Glanz",
      "slug": "café-glanz",
      "status": "PUBLIC",
      "content": "",
      "language": 1,
      "version": 1,
      "last_updated": "2022-06-07T17:35:06.860Z",
      "creator": 1,
      "poi": 125,
      "meta_description": "Café Glanz"
    }
  },
  {
    "model": "cms.poitranslation",
    "pk": 125,
    "fields": {
      "title": "IMMA Café",
      "slug": "imma-café",
      "status": "PUBLIC",
      "content": "",
      "language": 1,
      "version": 1,
      "last_updated": "2022-06-09T08:09:22.948Z",
      "creator": 1,
      "poi": 126,
      "meta_description": "IMMA Café"
    }
  },
  {
    "model": "cms.poitranslation",
    "pk": 126,
    "fields": {
      "title": "Bellevue di Monaco",
      "slug": "bellevue-di-monaco-3",
      "status": "PUBLIC",
      "content": "",
      "language": 1,
      "version": 2,
      "last_updated": "2022-06-10T10:34:20.986Z",
      "creator": 1,
      "poi": 102,
      "meta_description": "Bellevue di Monaco"
    }
  },
  {
    "model": "cms.poitranslation",
    "pk": 127,
    "fields": {
      "title": "Johanniter-Akademie - Campus München",
      "slug": "johanniter-akademie-campus-muenchen",
      "status": "PUBLIC",
      "content": "",
      "language": 1,
      "version": 2,
      "last_updated": "2022-06-10T10:34:55.526Z",
      "creator": 1,
      "poi": 103,
      "meta_description": "Johanniter-Akademie - Campus München"
    }
  },
  {
    "model": "cms.poitranslation",
    "pk": 128,
    "fields": {
      "title": "Bellevue di Monaco",
      "slug": "bellevue-di-monaco",
      "status": "PUBLIC",
      "content": "",
      "language": 1,
      "version": 2,
      "last_updated": "2022-06-10T10:35:27.574Z",
      "creator": 1,
      "poi": 104,
      "meta_description": "Bellevue di Monaco"
    }
  },
  {
    "model": "cms.poitranslation",
    "pk": 129,
    "fields": {
      "title": "Fabi Milbertshofen",
      "slug": "fabi-milbertshofen-2",
      "status": "PUBLIC",
      "content": "",
      "language": 1,
      "version": 2,
      "last_updated": "2022-06-10T10:38:24.709Z",
      "creator": 1,
      "poi": 106,
      "meta_description": "Fabi Milbertshofen"
    }
  },
  {
    "model": "cms.poitranslation",
    "pk": 130,
    "fields": {
      "title": "ClubIn Internationaler Treff",
      "slug": "clubin-internationaler-treff",
      "status": "PUBLIC",
      "content": "",
      "language": 1,
      "version": 2,
      "last_updated": "2022-06-10T10:45:15.821Z",
      "creator": 1,
      "poi": 110,
      "meta_description": "ClubIn Internationaler Treff"
    }
  },
  {
    "model": "cms.poitranslation",
    "pk": 131,
    "fields": {
      "title": "Hauptbahnhof - DB Infopoint",
      "slug": "hauptbahnhof-db-infopoint",
      "status": "PUBLIC",
      "content": "",
      "language": 1,
      "version": 2,
      "last_updated": "2022-06-27T08:04:36.576Z",
      "creator": 1,
      "poi": 111,
      "meta_description": "Hauptbahnhof - DB Infopoint"
    }
  },
  {
    "model": "cms.poitranslation",
    "pk": 132,
    "fields": {
      "title": "DAV Kletter- und Boulderzentrum München-Süd",
      "slug": "dav-kletter-und-boulderzentrum-muenchen-sued",
      "status": "PUBLIC",
      "content": "",
      "language": 1,
      "version": 2,
      "last_updated": "2022-06-10T11:57:19.883Z",
      "creator": 1,
      "poi": 113,
      "meta_description": "DAV Kletter- und Boulderzentrum München-Süd"
    }
  },
  {
    "model": "cms.poitranslation",
    "pk": 133,
    "fields": {
      "title": "Projekt-Laden International Haidhausen",
      "slug": "projekt-laden-international-haidhausen",
      "status": "PUBLIC",
      "content": "",
      "language": 1,
      "version": 2,
      "last_updated": "2022-06-10T12:00:03.681Z",
      "creator": 1,
      "poi": 107,
      "meta_description": "Projekt-Laden International Haidhausen"
    }
  },
  {
    "model": "cms.poitranslation",
    "pk": 134,
    "fields": {
      "title": "Fabi Neuperlach",
      "slug": "fabi-neuperlach",
      "status": "PUBLIC",
      "content": "",
      "language": 1,
      "version": 2,
      "last_updated": "2022-06-10T12:02:30.209Z",
      "creator": 1,
      "poi": 109,
      "meta_description": "Fabi Neuperlach"
    }
  },
  {
    "model": "cms.poitranslation",
    "pk": 135,
    "fields": {
      "title": "Bildungs- und Integrationszentrum der Johannniter-Unfall-Hilfe e.V.",
      "slug": "bildungs-und-integrationszentrum-der-johannniter-unfall-hilfe-e-v",
      "status": "PUBLIC",
      "content": "",
      "language": 1,
      "version": 2,
      "last_updated": "2022-06-10T12:03:21.924Z",
      "creator": 1,
      "poi": 115,
      "meta_description": "Bildungs- und Integrationszentrum der Johannniter-Unfall-Hilfe e.V."
    }
  },
  {
    "model": "cms.poitranslation",
    "pk": 136,
    "fields": {
      "title": "Projekt-Laden International Haidhausen",
      "slug": "projekt-laden-international-haidhausen",
      "status": "PUBLIC",
      "content": "",
      "language": 1,
      "version": 3,
      "last_updated": "2022-06-10T12:04:03.757Z",
      "creator": 1,
      "poi": 107,
      "meta_description": "Projektladen International Haidhausen"
    }
  },
  {
    "model": "cms.poitranslation",
    "pk": 137,
    "fields": {
      "title": "Integrationsberatungszentrum (IBZ - Sprache und Beruf)",
      "slug": "integrationsberatungszentrum-ibz-sprache-und-beruf",
      "status": "PUBLIC",
      "content": "",
      "language": 1,
      "version": 1,
      "last_updated": "2022-06-10T12:08:42.411Z",
      "creator": 1,
      "poi": 127,
      "meta_description": "Integrationsberatungszentrum (IBZ - Sprache und Beruf)"
    }
  },
  {
    "model": "cms.poitranslation",
    "pk": 138,
    "fields": {
      "title": "Treff 21 - Jugendfreizeitstätte",
      "slug": "treff-21-jugendfreizeitstätte",
      "status": "PUBLIC",
      "content": "",
      "language": 1,
      "version": 1,
      "last_updated": "2022-06-10T13:04:47.049Z",
      "creator": 1,
      "poi": 128,
      "meta_description": "Treff 21 - Jugendfreizeitstätte"
    }
  },
  {
    "model": "cms.poitranslation",
    "pk": 139,
    "fields": {
      "title": "Münchner Volkstheater",
      "slug": "münchner-volkstheater",
      "status": "PUBLIC",
      "content": "",
      "language": 1,
      "version": 1,
      "last_updated": "2022-06-10T13:11:25.597Z",
      "creator": 1,
      "poi": 129,
      "meta_description": "Münchner Volkstheater"
    }
  },
  {
    "model": "cms.poitranslation",
    "pk": 140,
    "fields": {
      "title": "Münchner Kammerspiele",
      "slug": "münchner-kammerspiele",
      "status": "PUBLIC",
      "content": "",
      "language": 1,
      "version": 1,
      "last_updated": "2022-06-10T13:11:43.995Z",
      "creator": 1,
      "poi": 130,
      "meta_description": "Münchner Kammerspiele"
    }
  },
  {
    "model": "cms.poitranslation",
    "pk": 141,
    "fields": {
      "title": "FrauenGesundheitsZentrum (FGZ)",
      "slug": "frauengesundheitszentrum-fgz",
      "status": "PUBLIC",
      "content": "",
      "language": 1,
      "version": 1,
      "last_updated": "2022-06-10T13:18:24.004Z",
      "creator": 1,
      "poi": 131,
      "meta_description": "FrauenGesundheitsZentrum (FGZ)"
    }
  },
  {
    "model": "cms.poitranslation",
    "pk": 142,
    "fields": {
      "title": "Gemeinsam leben lernen e. V.",
      "slug": "gemeinsam-leben-lernen-e-v",
      "status": "PUBLIC",
      "content": "",
      "language": 1,
      "version": 1,
      "last_updated": "2022-06-10T13:22:33.697Z",
      "creator": 1,
      "poi": 132,
      "meta_description": "Gemeinsam leben lernen e. V."
    }
  },
  {
    "model": "cms.poitranslation",
    "pk": 143,
    "fields": {
      "title": "Munich Kyiv Queer c/o Sub e.V.",
      "slug": "munich-kyiv-queer-co-sub-ev",
      "status": "PUBLIC",
      "content": "",
      "language": 1,
      "version": 1,
      "last_updated": "2022-06-10T13:30:15.321Z",
      "creator": 1,
      "poi": 133,
      "meta_description": "Munich Kyiv Queer c/o Sub e.V."
    }
  },
  {
    "model": "cms.poitranslation",
    "pk": 144,
    "fields": {
      "title": "Münchner Frauenforum und Seniorenbörse",
      "slug": "münchner-frauenforum-und-seniorenbörse",
      "status": "PUBLIC",
      "content": "",
      "language": 1,
      "version": 1,
      "last_updated": "2022-06-10T13:40:10.933Z",
      "creator": 1,
      "poi": 134,
      "meta_description": "Münchner Frauenforum und Seniorenbörse"
    }
  },
  {
    "model": "cms.poitranslation",
    "pk": 145,
    "fields": {
      "title": "Refugio Kunstwerkstatt",
      "slug": "refugio-kunstwerkstatt",
      "status": "PUBLIC",
      "content": "",
      "language": 1,
      "version": 1,
      "last_updated": "2022-06-10T13:57:11.520Z",
      "creator": 1,
      "poi": 135,
      "meta_description": "Refugio Kunstwerkstatt"
    }
  },
  {
    "model": "cms.poitranslation",
    "pk": 146,
    "fields": {
      "title": "Mental Health Center Ukraine (MHCU)",
      "slug": "mental-health-center-ukraine-mhcu",
      "status": "PUBLIC",
      "content": "",
      "language": 1,
      "version": 1,
      "last_updated": "2022-07-11T12:38:27.045Z",
      "creator": 1,
      "poi": 136,
      "meta_description": "Mental Health Center Ukraine (MHCU)"
    }
  },
  {
    "model": "cms.poitranslation",
    "pk": 147,
    "fields": {
      "title": "Stadtbibliothek Allach-Untermenzing",
      "slug": "stadtbibliothek-allach-untermenzing",
      "status": "PUBLIC",
      "content": "",
      "language": 1,
      "version": 1,
      "last_updated": "2022-06-10T17:16:14.226Z",
      "creator": 1,
      "poi": 137,
      "meta_description": "Stadtbibliothek Allach-Untermenzing"
    }
  },
  {
    "model": "cms.poitranslation",
    "pk": 148,
    "fields": {
      "title": "Stadtbibliothek Berg am Laim",
      "slug": "stadtbibliothek-berg-am-laim",
      "status": "PUBLIC",
      "content": "",
      "language": 1,
      "version": 1,
      "last_updated": "2022-06-10T17:01:54.399Z",
      "creator": 1,
      "poi": 138,
      "meta_description": "Stadtbibliothek Berg am Laim"
    }
  },
  {
    "model": "cms.poitranslation",
    "pk": 149,
    "fields": {
      "title": "Stadtbibliothek Bogenhausen",
      "slug": "stadtbibliothek-bogenhausen",
      "status": "PUBLIC",
      "content": "",
      "language": 1,
      "version": 1,
      "last_updated": "2022-06-10T17:02:05.928Z",
      "creator": 1,
      "poi": 139,
      "meta_description": "Stadtbibliothek Bogenhausen"
    }
  },
  {
    "model": "cms.poitranslation",
    "pk": 150,
    "fields": {
      "title": "Stadtbibliothek Fürstenried",
      "slug": "stadtbibliothek-fürstenried",
      "status": "PUBLIC",
      "content": "",
      "language": 1,
      "version": 1,
      "last_updated": "2022-06-10T17:01:22.994Z",
      "creator": 1,
      "poi": 140,
      "meta_description": "Stadtbibliothek Fürstenried"
    }
  },
  {
    "model": "cms.poitranslation",
    "pk": 151,
    "fields": {
      "title": "Stadtbibliothek Giesing",
      "slug": "stadtbibliothek-giesing",
      "status": "PUBLIC",
      "content": "",
      "language": 1,
      "version": 1,
      "last_updated": "2022-06-10T17:17:05.524Z",
      "creator": 1,
      "poi": 141,
      "meta_description": "Stadtbibliothek Giesing"
    }
  },
  {
    "model": "cms.poitranslation",
    "pk": 152,
    "fields": {
      "title": "Stadtbibliothek Hadern",
      "slug": "stadtbibliothek-hadern",
      "status": "PUBLIC",
      "content": "",
      "language": 1,
      "version": 1,
      "last_updated": "2022-06-10T17:17:34.998Z",
      "creator": 1,
      "poi": 142,
      "meta_description": "Stadtbibliothek Hadern"
    }
  },
  {
    "model": "cms.poitranslation",
    "pk": 153,
    "fields": {
      "title": "HP8 (Sendling)",
      "slug": "hp8-sendling",
      "status": "PUBLIC",
      "content": "",
      "language": 1,
      "version": 1,
      "last_updated": "2022-06-10T17:15:29.112Z",
      "creator": 1,
      "poi": 143,
      "meta_description": "HP8 (Sendling)"
    }
  },
  {
    "model": "cms.poitranslation",
    "pk": 154,
    "fields": {
      "title": "Stadtbibliothek Isarvorstadt",
      "slug": "stadtbibliothek-isarvorstadt",
      "status": "PUBLIC",
      "content": "",
      "language": 1,
      "version": 1,
      "last_updated": "2022-06-10T17:18:58.271Z",
      "creator": 1,
      "poi": 144,
      "meta_description": "Stadtbibliothek Isarvorstadt"
    }
  },
  {
    "model": "cms.poitranslation",
    "pk": 155,
    "fields": {
      "title": "Stadtbibliothek Laim",
      "slug": "stadtbibliothek-laim",
      "status": "PUBLIC",
      "content": "",
      "language": 1,
      "version": 1,
      "last_updated": "2022-06-10T17:20:04.576Z",
      "creator": 1,
      "poi": 145,
      "meta_description": "Stadtbibliothek Laim"
    }
  },
  {
    "model": "cms.poitranslation",
    "pk": 156,
    "fields": {
      "title": "Stadtbibliothek Maxvorstadt",
      "slug": "stadtbibliothek-maxvorstadt",
      "status": "PUBLIC",
      "content": "",
      "language": 1,
      "version": 1,
      "last_updated": "2022-06-10T17:21:06.046Z",
      "creator": 1,
      "poi": 146,
      "meta_description": "Stadtbibliothek Maxvorstadt"
    }
  },
  {
    "model": "cms.poitranslation",
    "pk": 157,
    "fields": {
      "title": "Stadtbibliothek Milbertshofen",
      "slug": "stadtbibliothek-milbertshofen",
      "status": "PUBLIC",
      "content": "",
      "language": 1,
      "version": 1,
      "last_updated": "2022-06-10T17:30:37.271Z",
      "creator": 1,
      "poi": 147,
      "meta_description": "Stadtbibliothek Milbertshofen"
    }
  },
  {
    "model": "cms.poitranslation",
    "pk": 158,
    "fields": {
      "title": "Kinder- und Jugendtreff Upstairs",
      "slug": "kinder-und-jugendtreff-upstairs",
      "status": "PUBLIC",
      "content": "",
      "language": 1,
      "version": 1,
      "last_updated": "2022-06-13T11:30:43.900Z",
      "creator": 1,
      "poi": 148,
      "meta_description": "Kinder- und Jugendtreff Upstairs"
    }
  },
  {
    "model": "cms.poitranslation",
    "pk": 159,
    "fields": {
      "title": "Stadtbibliothek Moosach",
      "slug": "stadtbibliothek-moosach",
      "status": "PUBLIC",
      "content": "",
      "language": 1,
      "version": 1,
      "last_updated": "2022-06-13T11:38:35.973Z",
      "creator": 1,
      "poi": 149,
      "meta_description": "Stadtbibliothek Moosach"
    }
  },
  {
    "model": "cms.poitranslation",
    "pk": 160,
    "fields": {
      "title": "Stadtbibliothek Motorama (Haidhausen)",
      "slug": "stadtbibliothek-motorama-haidhausen",
      "status": "PUBLIC",
      "content": "",
      "language": 1,
      "version": 1,
      "last_updated": "2022-06-13T11:39:55.354Z",
      "creator": 1,
      "poi": 150,
      "meta_description": "Stadtbibliothek Motorama (Haidhausen)"
    }
  },
  {
    "model": "cms.poitranslation",
    "pk": 161,
    "fields": {
      "title": "Stadtbibliothek Neuhausen",
      "slug": "stadtbibliothek-neuhausen",
      "status": "PUBLIC",
      "content": "",
      "language": 1,
      "version": 1,
      "last_updated": "2022-06-13T11:41:23.273Z",
      "creator": 1,
      "poi": 151,
      "meta_description": "Stadtbibliothek Neuhausen"
    }
  },
  {
    "model": "cms.poitranslation",
    "pk": 162,
    "fields": {
      "title": "Stadtbibliothek Neuperlach",
      "slug": "stadtbibliothek-neuperlach",
      "status": "PUBLIC",
      "content": "",
      "language": 1,
      "version": 1,
      "last_updated": "2022-06-13T11:42:23.241Z",
      "creator": 1,
      "poi": 152,
      "meta_description": "Stadtbibliothek Neuperlach"
    }
  },
  {
    "model": "cms.poitranslation",
    "pk": 163,
    "fields": {
      "title": "Stadtbibliothek Pasing",
      "slug": "stadtbibliothek-pasing",
      "status": "PUBLIC",
      "content": "",
      "language": 1,
      "version": 1,
      "last_updated": "2022-06-13T11:43:37.817Z",
      "creator": 1,
      "poi": 153,
      "meta_description": "Stadtbibliothek Pasing"
    }
  },
  {
    "model": "cms.poitranslation",
    "pk": 164,
    "fields": {
      "title": "Stadtbibliothek Schwabing",
      "slug": "stadtbibliothek-schwabing",
      "status": "PUBLIC",
      "content": "",
      "language": 1,
      "version": 1,
      "last_updated": "2022-06-13T11:44:38.301Z",
      "creator": 1,
      "poi": 154,
      "meta_description": "Stadtbibliothek Schwabing"
    }
  },
  {
    "model": "cms.poitranslation",
    "pk": 165,
    "fields": {
      "title": "Stadtbibliothek Sendling",
      "slug": "stadtbibliothek-sendling",
      "status": "PUBLIC",
      "content": "",
      "language": 1,
      "version": 1,
      "last_updated": "2022-06-13T11:45:49.692Z",
      "creator": 1,
      "poi": 155,
      "meta_description": "Stadtbibliothek Sendling"
    }
  },
  {
    "model": "cms.poitranslation",
    "pk": 166,
    "fields": {
      "title": "Stadtbibliothek Waldtrudering",
      "slug": "stadtbibliothek-waldtrudering",
      "status": "PUBLIC",
      "content": "",
      "language": 1,
      "version": 1,
      "last_updated": "2022-06-13T11:47:07.387Z",
      "creator": 1,
      "poi": 156,
      "meta_description": "Stadtbibliothek Waldtrudering"
    }
  },
  {
    "model": "cms.poitranslation",
    "pk": 167,
    "fields": {
      "title": "Stadtbibliothek Westend",
      "slug": "stadtbibliothek-westend",
      "status": "PUBLIC",
      "content": "",
      "language": 1,
      "version": 1,
      "last_updated": "2022-06-13T11:48:08.559Z",
      "creator": 1,
      "poi": 157,
      "meta_description": "Stadtbibliothek Westend"
    }
  },
  {
    "model": "cms.poitranslation",
    "pk": 168,
    "fields": {
      "title": "diversity Café",
      "slug": "diversity-café",
      "status": "PUBLIC",
      "content": "",
      "language": 1,
      "version": 1,
      "last_updated": "2022-06-13T11:57:52.984Z",
      "creator": 1,
      "poi": 158,
      "meta_description": "diversity Café"
    }
  },
  {
    "model": "cms.poitranslation",
    "pk": 169,
    "fields": {
      "title": "Münchner Theater für Kinder",
      "slug": "münchner-theater-für-kinder",
      "status": "PUBLIC",
      "content": "",
      "language": 1,
      "version": 1,
      "last_updated": "2022-06-13T11:59:48.996Z",
      "creator": 1,
      "poi": 159,
      "meta_description": "Münchner Theater für Kinder"
    }
  },
  {
    "model": "cms.poitranslation",
    "pk": 170,
    "fields": {
      "title": "KulturBunt Neuperlach",
      "slug": "kulturbunt-neuperlach",
      "status": "PUBLIC",
      "content": "",
      "language": 1,
      "version": 1,
      "last_updated": "2022-06-13T12:01:07.327Z",
      "creator": 1,
      "poi": 160,
      "meta_description": "KulturBunt Neuperlach"
    }
  },
  {
    "model": "cms.poitranslation",
    "pk": 171,
    "fields": {
      "title": "BildungsLokal Hasenbergl",
      "slug": "bildungslokal-hasenbergl",
      "status": "PUBLIC",
      "content": "",
      "language": 1,
      "version": 1,
      "last_updated": "2022-06-13T12:03:43.598Z",
      "creator": 1,
      "poi": 161,
      "meta_description": "BildungsLokal Hasenbergl"
    }
  },
  {
    "model": "cms.poitranslation",
    "pk": 172,
    "fields": {
      "title": "BildungsLokal Berg am Laim / Ramersdorf",
      "slug": "bildungslokal-berg-am-laim-ramersdorf",
      "status": "PUBLIC",
      "content": "",
      "language": 1,
      "version": 1,
      "last_updated": "2022-06-13T12:04:43.875Z",
      "creator": 1,
      "poi": 162,
      "meta_description": "BildungsLokal Berg am Laim / Ramersdorf"
    }
  },
  {
    "model": "cms.poitranslation",
    "pk": 173,
    "fields": {
      "title": "BildungsLokal Neuaubing-Westkreuz",
      "slug": "bildungslokal-neuaubing-westkreuz",
      "status": "PUBLIC",
      "content": "",
      "language": 1,
      "version": 1,
      "last_updated": "2022-06-13T12:06:03.257Z",
      "creator": 1,
      "poi": 163,
      "meta_description": "BildungsLokal Neuaubing-Westkreuz"
    }
  },
  {
    "model": "cms.poitranslation",
    "pk": 174,
    "fields": {
      "title": "BildungsLokal Neuperlach",
      "slug": "bildungslokal-neuperlach",
      "status": "PUBLIC",
      "content": "",
      "language": 1,
      "version": 1,
      "last_updated": "2022-06-13T12:07:12.885Z",
      "creator": 1,
      "poi": 164,
      "meta_description": "BildungsLokal Neuperlach"
    }
  },
  {
    "model": "cms.poitranslation",
    "pk": 175,
    "fields": {
      "title": "BildungsLokal Riem",
      "slug": "bildungslokal-riem",
      "status": "PUBLIC",
      "content": "",
      "language": 1,
      "version": 1,
      "last_updated": "2022-06-13T12:08:24.230Z",
      "creator": 1,
      "poi": 165,
      "meta_description": "BildungsLokal Riem"
    }
  },
  {
    "model": "cms.poitranslation",
    "pk": 176,
    "fields": {
      "title": "BildungsLokal Schwanthalerhöhe",
      "slug": "bildungslokal-schwanthalerhöhe",
      "status": "PUBLIC",
      "content": "",
      "language": 1,
      "version": 1,
      "last_updated": "2022-06-13T12:09:33.946Z",
      "creator": 1,
      "poi": 166,
      "meta_description": "BildungsLokal Schwanthalerhöhe"
    }
  },
  {
    "model": "cms.poitranslation",
    "pk": 177,
    "fields": {
      "title": "Agentur für Arbeit",
      "slug": "agentur-für-arbeit",
      "status": "PUBLIC",
      "content": "",
      "language": 1,
      "version": 1,
      "last_updated": "2022-06-15T10:51:57.920Z",
      "creator": 1,
      "poi": 167,
      "meta_description": "Agentur für Arbeit"
    }
  },
  {
    "model": "cms.poitranslation",
    "pk": 178,
    "fields": {
      "title": "JiBB – Junge Menschen in Bildung und Beruf",
      "slug": "jibb-junge-menschen-in-bildung-und-beruf",
      "status": "PUBLIC",
      "content": "",
      "language": 1,
      "version": 1,
      "last_updated": "2022-06-15T10:53:15.296Z",
      "creator": 1,
      "poi": 168,
      "meta_description": "JiBB – Junge Menschen in Bildung und Beruf"
    }
  },
  {
    "model": "cms.poitranslation",
    "pk": 179,
    "fields": {
      "title": "DEB gGmbH",
      "slug": "deb-ggmbh",
      "status": "PUBLIC",
      "content": "",
      "language": 1,
      "version": 1,
      "last_updated": "2022-06-15T11:42:59.013Z",
      "creator": 1,
      "poi": 169,
      "meta_description": "DEB gGmbH"
    }
  },
  {
    "model": "cms.poitranslation",
    "pk": 180,
    "fields": {
      "title": "Sugar Mountain München",
      "slug": "sugar-mountain-münchen",
      "status": "PUBLIC",
      "content": "",
      "language": 1,
      "version": 1,
      "last_updated": "2022-06-15T12:12:56.208Z",
      "creator": 1,
      "poi": 170,
      "meta_description": "Sugar Mountain München"
    }
  },
  {
    "model": "cms.poitranslation",
    "pk": 181,
    "fields": {
      "title": "socialbee",
      "slug": "socialbee",
      "status": "PUBLIC",
      "content": "",
      "language": 1,
      "version": 1,
      "last_updated": "2022-06-15T12:21:35.339Z",
      "creator": 1,
      "poi": 171,
      "meta_description": "socialbee"
    }
  },
  {
    "model": "cms.poitranslation",
    "pk": 182,
    "fields": {
      "title": "Social Impact Lab",
      "slug": "social-impact-lab",
      "status": "PUBLIC",
      "content": "",
      "language": 1,
      "version": 1,
      "last_updated": "2022-06-15T13:12:54.851Z",
      "creator": 1,
      "poi": 172,
      "meta_description": "Social Impact Lab"
    }
  },
  {
    "model": "cms.poitranslation",
    "pk": 183,
    "fields": {
      "title": "Haus für Kinder",
      "slug": "haus-für-kinder",
      "status": "PUBLIC",
      "content": "",
      "language": 1,
      "version": 1,
      "last_updated": "2022-06-21T08:33:01.616Z",
      "creator": 1,
      "poi": 173,
      "meta_description": "Haus für Kinder"
    }
  },
  {
    "model": "cms.poitranslation",
    "pk": 184,
    "fields": {
      "title": "Wikipedia-Büro",
      "slug": "wikipedia-büro",
      "status": "PUBLIC",
      "content": "",
      "language": 1,
      "version": 2,
      "last_updated": "2022-06-22T09:31:57.038Z",
      "creator": 1,
      "poi": 122,
      "meta_description": "Wikipedia-Büro"
    }
  },
  {
    "model": "cms.poitranslation",
    "pk": 185,
    "fields": {
      "title": "Familienzentrum Laim",
      "slug": "familienzentrum-laim",
      "status": "PUBLIC",
      "content": "",
      "language": 1,
      "version": 1,
      "last_updated": "2022-06-22T13:35:08.987Z",
      "creator": 1,
      "poi": 174,
      "meta_description": "Familienzentrum Laim"
    }
  },
  {
    "model": "cms.poitranslation",
    "pk": 186,
    "fields": {
      "title": "Jugendinformationszentrum (JIZ)",
      "slug": "jugendinformationszentrum-jiz",
      "status": "PUBLIC",
      "content": "",
      "language": 1,
      "version": 1,
      "last_updated": "2022-06-22T14:06:33.518Z",
      "creator": 1,
      "poi": 175,
      "meta_description": "Jugendinformationszentrum (JIZ)"
    }
  },
  {
    "model": "cms.poitranslation",
    "pk": 187,
    "fields": {
      "title": "Treffam",
      "slug": "treffam",
      "status": "PUBLIC",
      "content": "",
      "language": 1,
      "version": 1,
      "last_updated": "2022-06-22T14:10:10.773Z",
      "creator": 1,
      "poi": 176,
      "meta_description": "Treffam"
    }
  },
  {
    "model": "cms.poitranslation",
    "pk": 188,
    "fields": {
      "title": "Ukraine-Infopoint am Hauptbahnhof",
      "slug": "ukraine-infopoint-am-hauptbahnhof",
      "status": "PUBLIC",
      "content": "",
      "language": 1,
      "version": 1,
      "last_updated": "2022-06-23T08:41:08.910Z",
      "creator": 1,
      "poi": 177,
      "meta_description": "Ukraine-Infopoint am Hauptbahnhof"
    }
  },
  {
    "model": "cms.poitranslation",
    "pk": 189,
    "fields": {
      "title": "Gesundheitsreferat",
      "slug": "gesundheitsreferat",
      "status": "PUBLIC",
      "content": "",
      "language": 1,
      "version": 1,
      "last_updated": "2022-06-23T08:45:49.349Z",
      "creator": 1,
      "poi": 178,
      "meta_description": "Gesundheitsreferat"
    }
  },
  {
    "model": "cms.poitranslation",
    "pk": 190,
    "fields": {
      "title": "Frauen beraten e. V. München",
      "slug": "frauen-beraten-e-v-münchen",
      "status": "PUBLIC",
      "content": "",
      "language": 1,
      "version": 1,
      "last_updated": "2022-06-23T08:47:59.293Z",
      "creator": 1,
      "poi": 179,
      "meta_description": "Frauen beraten e. V. München"
    }
  },
  {
    "model": "cms.poitranslation",
    "pk": 191,
    "fields": {
      "title": "Gesundheitsreferat - Schwangerschaftsberatung",
      "slug": "gesundheitsreferat-schwangerschaftsberatung",
      "status": "PUBLIC",
      "content": "",
      "language": 1,
      "version": 2,
      "last_updated": "2022-06-23T08:49:24.945Z",
      "creator": 1,
      "poi": 178,
      "meta_description": "Gesundheitsreferat - Schwangerschaftsberatung"
    }
  },
  {
    "model": "cms.poitranslation",
    "pk": 192,
    "fields": {
      "title": "Frauen beraten e. V. München - Schwangerschaftsberatung",
      "slug": "frauen-beraten-e-v-münchen-schwangerschaftsberatung",
      "status": "PUBLIC",
      "content": "",
      "language": 1,
      "version": 2,
      "last_updated": "2022-06-23T08:50:01.549Z",
      "creator": 1,
      "poi": 179,
      "meta_description": "Frauen beraten e. V. München - Schwangerschaftsberatung"
    }
  },
  {
    "model": "cms.poitranslation",
    "pk": 193,
    "fields": {
      "title": "Pro Familia e. V. - Schwangerschaftsberatung",
      "slug": "pro-familia-e-v-schwangerschaftsberatung",
      "status": "PUBLIC",
      "content": "",
      "language": 1,
      "version": 1,
      "last_updated": "2022-06-23T08:56:00.082Z",
      "creator": 1,
      "poi": 180,
      "meta_description": "Pro Familia e. V. - Schwangerschaftsberatung"
    }
  },
  {
    "model": "cms.poitranslation",
    "pk": 194,
    "fields": {
      "title": "Pro Familia e. V. - Schwangerschaftsberatung München-Neuaubing",
      "slug": "pro-familia-e-v-schwangerschaftsberatung-münchen-neuaubing",
      "status": "PUBLIC",
      "content": "",
      "language": 1,
      "version": 1,
      "last_updated": "2022-06-23T08:59:22.936Z",
      "creator": 1,
      "poi": 181,
      "meta_description": "Pro Familia e. V. - Schwangerschaftsberatung München-Neuaubing"
    }
  },
  {
    "model": "cms.poitranslation",
    "pk": 195,
    "fields": {
      "title": "Pro Familia e. V. - Schwangerschaftsberatung Schwabing",
      "slug": "pro-familia-e-v-schwangerschaftsberatung-schwabing",
      "status": "PUBLIC",
      "content": "",
      "language": 1,
      "version": 2,
      "last_updated": "2022-06-23T08:59:49.138Z",
      "creator": 1,
      "poi": 180,
      "meta_description": "Pro Familia e. V. - Schwangerschaftsberatung Schwabing"
    }
  },
  {
    "model": "cms.poitranslation",
    "pk": 196,
    "fields": {
      "title": "Frauen beraten e. V. München - Schwangerschaftsberatung Stadtmitte",
      "slug": "frauen-beraten-e-v-münchen-schwangerschaftsberatung-stadtmitte",
      "status": "PUBLIC",
      "content": "",
      "language": 1,
      "version": 3,
      "last_updated": "2022-06-23T09:00:27.544Z",
      "creator": 1,
      "poi": 179,
      "meta_description": "Frauen beraten e. V. München - Schwangerschaftsberatung Stadtmitte"
    }
  },
  {
    "model": "cms.poitranslation",
    "pk": 197,
    "fields": {
      "title": "Schwangerschaftsberatung - Frauen beraten e. V. München Sendling",
      "slug": "schwangerschaftsberatung-frauen-beraten-e-v-münchen-sendling",
      "status": "PUBLIC",
      "content": "",
      "language": 1,
      "version": 1,
      "last_updated": "2022-06-23T09:07:09.282Z",
      "creator": 1,
      "poi": 182,
      "meta_description": "Schwangerschaftsberatung - Frauen beraten e. V. München Sendling"
    }
  },
  {
    "model": "cms.poitranslation",
    "pk": 198,
    "fields": {
      "title": "Schwangerschaftsberatung - Frauen beraten e. V. München Stadtmitte",
      "slug": "schwangerschaftsberatung-frauen-beraten-e-v-münchen-stadtmitte",
      "status": "PUBLIC",
      "content": "",
      "language": 1,
      "version": 4,
      "last_updated": "2022-06-23T09:03:10.081Z",
      "creator": 1,
      "poi": 179,
      "meta_description": "Schwangerschaftsberatung - Frauen beraten e. V. München Stadtmitte"
    }
  },
  {
    "model": "cms.poitranslation",
    "pk": 199,
    "fields": {
      "title": "Schwangerschaftsberatung  - Pro Familia e. V. Schwabing",
      "slug": "schwangerschaftsberatung-pro-familia-e-v-schwabing",
      "status": "PUBLIC",
      "content": "",
      "language": 1,
      "version": 3,
      "last_updated": "2022-06-23T09:03:42.989Z",
      "creator": 1,
      "poi": 180,
      "meta_description": "Schwangerschaftsberatung  - Pro Familia e. V. Schwabing"
    }
  },
  {
    "model": "cms.poitranslation",
    "pk": 200,
    "fields": {
      "title": "Schwangerschaftsberatung  - Pro Familia e. V. München-Neuaubing",
      "slug": "schwangerschaftsberatung-pro-familia-e-v-münchen-neuaubing",
      "status": "PUBLIC",
      "content": "",
      "language": 1,
      "version": 2,
      "last_updated": "2022-06-23T09:04:02.916Z",
      "creator": 1,
      "poi": 181,
      "meta_description": "Schwangerschaftsberatung  - Pro Familia e. V. München-Neuaubing"
    }
  },
  {
    "model": "cms.poitranslation",
    "pk": 201,
    "fields": {
      "title": "Schwangerschaftsberatung - Gesundheitsreferat",
      "slug": "schwangerschaftsberatung-gesundheitsreferat",
      "status": "PUBLIC",
      "content": "",
      "language": 1,
      "version": 3,
      "last_updated": "2022-06-23T09:04:35.019Z",
      "creator": 1,
      "poi": 178,
      "meta_description": "Schwangerschaftsberatung - Gesundheitsreferat"
    }
  },
  {
    "model": "cms.poitranslation",
    "pk": 202,
    "fields": {
      "title": "Schwangerschaftsberatung - Frauen beraten e. V. München Neuperlach",
      "slug": "schwangerschaftsberatung-frauen-beraten-e-v-münchen-neuperlach",
      "status": "PUBLIC",
      "content": "",
      "language": 1,
      "version": 1,
      "last_updated": "2022-06-23T09:06:29.315Z",
      "creator": 1,
      "poi": 183,
      "meta_description": "Schwangerschaftsberatung - Frauen beraten e. V. München Neuperlach"
    }
  },
  {
    "model": "cms.poitranslation",
    "pk": 203,
    "fields": {
      "title": "Schwangerschaftsberatung - Pro Familia e. V. Feldmoching-Hasenbergl",
      "slug": "schwangerschaftsberatung-pro-familia-e-v-feldmoching-hasenbergl",
      "status": "PUBLIC",
      "content": "",
      "language": 1,
      "version": 1,
      "last_updated": "2022-06-23T09:08:38.104Z",
      "creator": 1,
      "poi": 184,
      "meta_description": "Schwangerschaftsberatung - Pro Familia e. V. Feldmoching-Hasenbergl"
    }
  },
  {
    "model": "cms.poitranslation",
    "pk": 204,
    "fields": {
      "title": "Schwangerschaftsberatung - ebz München e. V. Ludwigsvorstadt - Isarvorstadt",
      "slug": "schwangerschaftsberatung-ebz-münchen-e-v-ludwigsvorstadt-isarvorstadt",
      "status": "PUBLIC",
      "content": "",
      "language": 1,
      "version": 1,
      "last_updated": "2022-06-23T09:10:55.987Z",
      "creator": 1,
      "poi": 185,
      "meta_description": "Schwangerschaftsberatung - ebz München e. V. Ludwigsvorstadt - Isarvorstadt"
    }
  },
  {
    "model": "cms.poitranslation",
    "pk": 205,
    "fields": {
      "title": "Schwangerschaftsberatung - ebz München e. V. Ramersdorf",
      "slug": "schwangerschaftsberatung-ebz-münchen-e-v-ramersdorf",
      "status": "PUBLIC",
      "content": "",
      "language": 1,
      "version": 1,
      "last_updated": "2022-06-23T09:12:42.284Z",
      "creator": 1,
      "poi": 186,
      "meta_description": "Schwangerschaftsberatung - ebz München e. V. Ramersdorf"
    }
  },
  {
    "model": "cms.poitranslation",
    "pk": 206,
    "fields": {
      "title": "Schwangerschaftsberatung - Sozialdienst katholischer Frauen München e. V. Neuhausen-Nymphenburg",
      "slug": "schwangerschaftsberatung-sozialdienst-katholischer-frauen-münchen-e-v-neuhausen-nymphenburg",
      "status": "PUBLIC",
      "content": "",
      "language": 1,
      "version": 1,
      "last_updated": "2022-06-23T09:26:03.657Z",
      "creator": 1,
      "poi": 187,
      "meta_description": "Schwangerschaftsberatung - Sozialdienst katholischer Frauen München e. V. Neuhausen-Nymphenburg"
    }
  },
  {
    "model": "cms.poitranslation",
    "pk": 207,
    "fields": {
      "title": "Schwangerschaftsberatung - Sozialdienst katholischer Frauen München e. V. Trudering-Riem",
      "slug": "schwangerschaftsberatung-sozialdienst-katholischer-frauen-münchen-e-v-trudering-riem",
      "status": "PUBLIC",
      "content": "",
      "language": 1,
      "version": 1,
      "last_updated": "2022-06-23T09:27:06.930Z",
      "creator": 1,
      "poi": 188,
      "meta_description": "Schwangerschaftsberatung - Sozialdienst katholischer Frauen München e. V. Trudering-Riem"
    }
  },
  {
    "model": "cms.poitranslation",
    "pk": 208,
    "fields": {
      "title": "Färberei",
      "slug": "färberei",
      "status": "PUBLIC",
      "content": "",
      "language": 1,
      "version": 1,
      "last_updated": "2022-06-24T09:53:39.324Z",
      "creator": 1,
      "poi": 189,
      "meta_description": "Färberei"
    }
  },
  {
    "model": "cms.poitranslation",
    "pk": 209,
    "fields": {
      "title": "Marienplatz",
      "slug": "marienplatz",
      "status": "PUBLIC",
      "content": "",
      "language": 1,
      "version": 1,
      "last_updated": "2022-06-27T07:07:46.935Z",
      "creator": 1,
      "poi": 190,
      "meta_description": "Marienplatz"
    }
  },
  {
    "model": "cms.poitranslation",
    "pk": 210,
    "fields": {
      "title": "U-Bahn Wettersteinplatz",
      "slug": "u-bahn-wettersteinplatz",
      "status": "PUBLIC",
      "content": "",
      "language": 1,
      "version": 1,
      "last_updated": "2022-06-27T07:38:41.366Z",
      "creator": 1,
      "poi": 191,
      "meta_description": "U-Bahn Wettersteinplatz"
    }
  },
  {
    "model": "cms.poitranslation",
    "pk": 211,
    "fields": {
      "title": "Hauptbahnhof",
      "slug": "hauptbahnhof-2",
      "status": "PUBLIC",
      "content": "",
      "language": 1,
      "version": 1,
      "last_updated": "2022-06-27T08:01:54.334Z",
      "creator": 1,
      "poi": 192,
      "meta_description": "Hauptbahnhof"
    }
  },
  {
    "model": "cms.poitranslation",
    "pk": 212,
    "fields": {
      "title": "Weißenseepark München",
      "slug": "weißenseepark-münchen",
      "status": "PUBLIC",
      "content": "",
      "language": 1,
      "version": 1,
      "last_updated": "2022-06-27T09:02:45.575Z",
      "creator": 1,
      "poi": 193,
      "meta_description": "Weißenseepark München"
    }
  },
  {
    "model": "cms.poitranslation",
    "pk": 213,
    "fields": {
      "title": "Jobcenter / Sozialbürgerhaus Berg am Laim-Trudering-Riem",
      "slug": "jobcenter-sozialbürgerhaus-berg-am-laim-trudering-riem",
      "status": "PUBLIC",
      "content": "",
      "language": 1,
      "version": 1,
      "last_updated": "2022-06-29T12:31:35.517Z",
      "creator": 1,
      "poi": 194,
      "meta_description": "Jobcenter / Sozialbürgerhaus Berg am Laim-Trudering-Riem"
    }
  },
  {
    "model": "cms.poitranslation",
    "pk": 214,
    "fields": {
      "title": "Jobcenter / Sozialbürgerhaus Nord",
      "slug": "jobcenter-sozialbürgerhaus-nord",
      "status": "PUBLIC",
      "content": "",
      "language": 1,
      "version": 1,
      "last_updated": "2022-06-29T12:33:09.651Z",
      "creator": 1,
      "poi": 195,
      "meta_description": "Jobcenter / Sozialbürgerhaus Nord"
    }
  },
  {
    "model": "cms.poitranslation",
    "pk": 215,
    "fields": {
      "title": "Jobcenter / Sozialbürgerhaus Giesing-Harlaching",
      "slug": "jobcenter-sozialbürgerhaus-giesing-harlaching",
      "status": "PUBLIC",
      "content": "",
      "language": 1,
      "version": 1,
      "last_updated": "2022-06-29T12:34:44.059Z",
      "creator": 1,
      "poi": 196,
      "meta_description": "Jobcenter / Sozialbürgerhaus Giesing-Harlaching"
    }
  },
  {
    "model": "cms.poitranslation",
    "pk": 216,
    "fields": {
      "title": "Jobcenter / Sozialbürgerhaus Laim-Schwanthalerhöhe",
      "slug": "jobcenter-sozialbürgerhaus-laim-schwanthalerhöhe",
      "status": "PUBLIC",
      "content": "",
      "language": 1,
      "version": 1,
      "last_updated": "2022-06-29T12:35:56.233Z",
      "creator": 1,
      "poi": 197,
      "meta_description": "Jobcenter / Sozialbürgerhaus Laim-Schwanthalerhöhe"
    }
  },
  {
    "model": "cms.poitranslation",
    "pk": 217,
    "fields": {
      "title": "Jobcenter / Sozialbürgerhaus Mitte",
      "slug": "jobcenter-sozialbürgerhaus-mitte",
      "status": "PUBLIC",
      "content": "",
      "language": 1,
      "version": 1,
      "last_updated": "2022-06-29T12:38:08.877Z",
      "creator": 1,
      "poi": 198,
      "meta_description": "Jobcenter / Sozialbürgerhaus Mitte"
    }
  },
  {
    "model": "cms.poitranslation",
    "pk": 218,
    "fields": {
      "title": "Jobcenter / Sozialbürgerhaus Neuhausen-Moosach",
      "slug": "jobcenter-sozialbürgerhaus-neuhausen-moosach",
      "status": "PUBLIC",
      "content": "",
      "language": 1,
      "version": 1,
      "last_updated": "2022-06-29T12:39:36.500Z",
      "creator": 1,
      "poi": 199,
      "meta_description": "Jobcenter / Sozialbürgerhaus Neuhausen-Moosach"
    }
  },
  {
    "model": "cms.poitranslation",
    "pk": 219,
    "fields": {
      "title": "Jobcenter / Sozialbürgerhaus Orleansplatz",
      "slug": "jobcenter-sozialbürgerhaus-orleansplatz",
      "status": "PUBLIC",
      "content": "",
      "language": 1,
      "version": 1,
      "last_updated": "2022-06-29T12:41:46.327Z",
      "creator": 1,
      "poi": 200,
      "meta_description": "Jobcenter / Sozialbürgerhaus Orleansplatz"
    }
  },
  {
    "model": "cms.poitranslation",
    "pk": 220,
    "fields": {
      "title": "Jobcenter / Sozialbürgerhaus Pasing",
      "slug": "jobcenter-sozialbürgerhaus-pasing",
      "status": "PUBLIC",
      "content": "",
      "language": 1,
      "version": 1,
      "last_updated": "2022-06-29T12:43:09.603Z",
      "creator": 1,
      "poi": 201,
      "meta_description": "Jobcenter / Sozialbürgerhaus Pasing"
    }
  },
  {
    "model": "cms.poitranslation",
    "pk": 221,
    "fields": {
      "title": "Jobcenter / Sozialbürgerhaus Süd",
      "slug": "jobcenter-sozialbürgerhaus-süd",
      "status": "PUBLIC",
      "content": "",
      "language": 1,
      "version": 1,
      "last_updated": "2022-06-29T12:44:03.362Z",
      "creator": 1,
      "poi": 202,
      "meta_description": "Jobcenter / Sozialbürgerhaus Süd"
    }
  },
  {
    "model": "cms.poitranslation",
    "pk": 222,
    "fields": {
      "title": "Jobcenter / Sozialbürgerhaus Ramersdorf-Perlach",
      "slug": "jobcenter-sozialbürgerhaus-ramersdorf-perlach",
      "status": "PUBLIC",
      "content": "",
      "language": 1,
      "version": 1,
      "last_updated": "2022-06-29T12:45:33.611Z",
      "creator": 1,
      "poi": 203,
      "meta_description": "Jobcenter / Sozialbürgerhaus Ramersdorf-Perlach"
    }
  },
  {
    "model": "cms.poitranslation",
    "pk": 223,
    "fields": {
      "title": "Jobcenter / Sozialbürgerhaus Schwabing-Freimann",
      "slug": "jobcenter-sozialbürgerhaus-schwabing-freimann",
      "status": "PUBLIC",
      "content": "",
      "language": 1,
      "version": 1,
      "last_updated": "2022-06-29T12:46:27.203Z",
      "creator": 1,
      "poi": 204,
      "meta_description": "Jobcenter / Sozialbürgerhaus Schwabing-Freimann"
    }
  },
  {
    "model": "cms.poitranslation",
    "pk": 224,
    "fields": {
      "title": "Jobcenter / Sozialbürgerhaus Sendling-Westpark",
      "slug": "jobcenter-sozialbürgerhaus-sendling-westpark",
      "status": "PUBLIC",
      "content": "",
      "language": 1,
      "version": 1,
      "last_updated": "2022-06-29T12:48:06.719Z",
      "creator": 1,
      "poi": 205,
      "meta_description": "Jobcenter / Sozialbürgerhaus Sendling-Westpark"
    }
  },
  {
    "model": "cms.poitranslation",
    "pk": 225,
    "fields": {
      "title": "Zentrum Wohnen und Integration",
      "slug": "zentrum-wohnen-und-integration",
      "status": "PUBLIC",
      "content": "",
      "language": 1,
      "version": 1,
      "last_updated": "2022-06-29T12:51:33.669Z",
      "creator": 1,
      "poi": 206,
      "meta_description": "Zentrum Wohnen und Integration"
    }
  },
  {
    "model": "cms.poitranslation",
    "pk": 226,
    "fields": {
      "title": "Jobcenter / Zentrum Wohnen und Integration",
      "slug": "jobcenter-zentrum-wohnen-und-integration",
      "status": "PUBLIC",
      "content": "",
      "language": 1,
      "version": 2,
      "minor_edit": true,
      "last_updated": "2022-06-29T14:53:48.776Z",
      "creator": 1,
      "poi": 206,
      "meta_description": "Jobcenter / Zentrum Wohnen und Integration"
    }
  },
  {
    "model": "cms.poitranslation",
    "pk": 227,
    "fields": {
      "title": "Jobcenter / Fachstelle für berufliche Wiedereingliederung",
      "slug": "jobcenter-fachstelle-für-berufliche-wiedereingliederung",
      "status": "PUBLIC",
      "content": "",
      "language": 1,
      "version": 1,
      "last_updated": "2022-06-29T12:56:15.757Z",
      "creator": 1,
      "poi": 207,
      "meta_description": "Jobcenter / Fachstelle für berufliche Wiedereingliederung"
    }
  },
  {
    "model": "cms.poitranslation",
    "pk": 228,
    "fields": {
      "title": "Naturparadies",
      "slug": "naturparadies",
      "status": "PUBLIC",
      "content": "",
      "language": 1,
      "version": 1,
      "last_updated": "2022-06-30T09:41:05.364Z",
      "creator": 1,
      "poi": 208,
      "meta_description": "Naturparadies"
    }
  },
  {
    "model": "cms.poitranslation",
    "pk": 229,
    "fields": {
      "title": "Naturparadies Stäblistraße",
      "slug": "naturparadies-stäblistraße",
      "status": "PUBLIC",
      "content": "",
      "language": 1,
      "version": 2,
      "last_updated": "2022-06-30T09:42:00.287Z",
      "creator": 1,
      "poi": 208,
      "meta_description": "Naturparadies Stäblistraße"
    }
  },
  {
    "model": "cms.poitranslation",
    "pk": 230,
    "fields": {
      "title": "Bildungszentrum München der Handwerkskammer für München und Oberbayern",
      "slug": "bildungszentrum-münchen-der-handwerkskammer-für-münchen-und-oberbayern",
      "status": "PUBLIC",
      "content": "",
      "language": 1,
      "version": 1,
      "last_updated": "2022-07-11T12:47:43.116Z",
      "creator": 1,
      "poi": 209,
      "meta_description": "Bildungszentrum München der Handwerkskammer für München und Oberbayern"
    }
  },
  {
    "model": "cms.poitranslation",
    "pk": 231,
    "fields": {
      "title": "Haus der Kunst",
      "slug": "haus-der-kunst",
      "status": "PUBLIC",
      "content": "",
      "language": 1,
      "version": 1,
      "last_updated": "2022-07-12T09:03:03.744Z",
      "creator": 1,
      "poi": 210,
      "meta_description": "Haus der Kunst"
    }
  },
  {
    "model": "cms.poitranslation",
    "pk": 232,
    "fields": {
      "title": "Evangelischen Holschulgemeinde (EHG)",
      "slug": "evangelischen-holschulgemeinde-ehg",
      "status": "PUBLIC",
      "content": "",
      "language": 1,
      "version": 1,
      "last_updated": "2022-07-13T13:38:33.845Z",
      "creator": 1,
      "poi": 211,
      "meta_description": "Evangelischen Holschulgemeinde (EHG)"
    }
  },
  {
    "model": "cms.poitranslation",
    "pk": 233,
    "fields": {
      "title": "Lenbachhaus",
      "slug": "lenbachhaus",
      "status": "PUBLIC",
      "content": "",
      "language": 1,
      "version": 1,
      "last_updated": "2022-07-25T07:49:43.774Z",
      "creator": 1,
      "poi": 212,
      "meta_description": "Lenbachhaus"
    }
  },
  {
    "model": "cms.poitranslation",
    "pk": 234,
    "fields": {
      "title": "Beratungsstelle für ältere Menschen und Angehörige Caritasverband München und Freising e. V.",
      "slug": "beratungsstelle-für-ältere-menschen-und-angehörige-caritasverband-münchen-und-freising-e-v",
      "status": "PUBLIC",
      "content": "",
      "language": 1,
      "version": 1,
      "last_updated": "2022-07-25T10:17:57.510Z",
      "creator": 1,
      "poi": 213,
      "meta_description": "Beratungsstelle für ältere Menschen und Angehörige Caritasverband München und Freising e. V."
    }
  },
  {
    "model": "cms.poitranslation",
    "pk": 235,
    "fields": {
      "title": "CUP Digital - Dein Weg in die digitale Welt",
      "slug": "cup-digital-dein-weg-in-die-digitale-welt",
      "status": "PUBLIC",
      "content": "",
      "language": 1,
      "version": 1,
      "last_updated": "2022-07-26T09:00:17.726Z",
      "creator": 1,
      "poi": 214,
      "meta_description": "CUP Digital - Dein Weg in die digitale Welt"
    }
  },
  {
    "model": "cms.poitranslation",
    "pk": 236,
    "fields": {
      "title": "AKA – Aktiv für interKulturellen Austausch e.V. Haidhausen",
      "slug": "aka-aktiv-für-interkulturellen-austausch-ev-haidhausen",
      "status": "PUBLIC",
      "content": "",
      "language": 1,
      "version": 1,
      "last_updated": "2022-07-28T10:50:57.166Z",
      "creator": 1,
      "poi": 215,
      "meta_description": "AKA – Aktiv für interKulturellen Austausch e.V. Haidhausen"
    }
  },
  {
    "model": "cms.poitranslation",
    "pk": 237,
    "fields": {
      "title": "AKA – Aktiv für interKulturellen Austausch e.V. Ramersdorf und Berg am Laim",
      "slug": "aka-aktiv-für-interkulturellen-austausch-ev-ramersdorf-und-berg-am-laim",
      "status": "PUBLIC",
      "content": "",
      "language": 1,
      "version": 1,
      "last_updated": "2022-08-25T07:10:50.415Z",
      "creator": 1,
      "poi": 216,
      "meta_description": "AKA – Aktiv für interKulturellen Austausch e.V. Ramersdorf und Berg am Laim"
    }
  },
  {
    "model": "cms.poitranslation",
    "pk": 238,
    "fields": {
      "title": "Johanniter-Akademie - Campus München",
      "slug": "johanniter-akademie-campus-muenchen-2",
      "status": "PUBLIC",
      "content": "",
      "language": 1,
      "version": 3,
      "last_updated": "2022-07-28T10:57:57.517Z",
      "creator": 1,
      "poi": 103,
      "meta_description": "Johanniter-Akademie - Campus München"
    }
  },
  {
    "model": "cms.poitranslation",
    "pk": 239,
    "fields": {
      "title": "Bildungs- und Integrationszentrum der Johannniter-Unfall-Hilfe e.V.",
      "slug": "bildungs-und-integrationszentrum-der-johannniter-unfall-hilfe-e-v",
      "status": "PUBLIC",
      "content": "",
      "language": 1,
      "version": 3,
      "last_updated": "2022-07-28T11:00:56.795Z",
      "creator": 1,
      "poi": 115,
      "meta_description": "Johanniter-Akademie - Campus München"
    }
  },
  {
    "model": "cms.poitranslation",
    "pk": 240,
    "fields": {
      "title": "Ankunftszentrum für Geflüchtete aus der Ukraine",
      "slug": "ankunftszentrum-für-geflüchtete-aus-der-ukraine",
      "status": "PUBLIC",
      "content": "",
      "language": 1,
      "version": 1,
      "last_updated": "2022-08-29T15:46:27.343Z",
      "creator": 1,
      "poi": 217,
      "meta_description": "Ankunftszentrum für Geflüchtete aus der Ukraine"
    }
  },
  {
    "model": "cms.poitranslation",
    "pk": 241,
    "fields": {
      "title": "Feierwerk",
      "slug": "feierwerk",
      "status": "PUBLIC",
      "content": "",
      "language": 1,
      "version": 1,
      "last_updated": "2022-09-06T10:58:39.992Z",
      "creator": 1,
      "poi": 218,
      "meta_description": "Feierwerk"
    }
  },
  {
    "model": "cms.poitranslation",
    "pk": 242,
    "fields": {
      "title": "Selbsthilfezentrum München",
      "slug": "selbsthilfezentrum-münchen",
      "status": "PUBLIC",
      "content": "",
      "language": 1,
      "version": 1,
      "last_updated": "2022-09-07T14:14:27.704Z",
      "creator": 1,
      "poi": 219,
      "meta_description": "Selbsthilfezentrum München"
    }
  },
  {
    "model": "cms.poitranslation",
    "pk": 243,
    "fields": {
      "title": "Nachbarschaftstreff Giesing",
      "slug": "nachbarschaftstreff-giesing",
      "status": "PUBLIC",
      "content": "",
      "language": 1,
      "version": 1,
      "last_updated": "2022-09-08T13:20:51.047Z",
      "creator": 1,
      "poi": 220,
      "meta_description": "Nachbarschaftstreff Giesing"
    }
  },
  {
    "model": "cms.poitranslation",
    "pk": 244,
    "fields": {
      "title": "KVR München",
      "slug": "kvr-münchen-2",
      "status": "PUBLIC",
      "content": "",
      "language": 1,
      "version": 1,
      "last_updated": "2022-09-12T12:31:41.358Z",
      "creator": 1,
      "poi": 221,
      "meta_description": "KVR München"
    }
  },
  {
    "model": "cms.poitranslation",
    "pk": 245,
    "fields": {
      "title": "KinderTagesZentrum KiTZ",
      "slug": "kindertageszentrum-kitz",
      "status": "PUBLIC",
      "content": "",
      "language": 1,
      "version": 1,
      "last_updated": "2022-10-06T08:43:14.532Z",
      "creator": 1,
      "poi": 222,
      "meta_description": "KinderTagesZentrum KiTZ"
    }
  },
  {
    "model": "cms.poitranslation",
    "pk": 246,
    "fields": {
      "title": "IG Klettern München & Südbayern e.V. / Bayerns beste Gipfelstürmer",
      "slug": "ig-klettern-münchen-südbayern-ev-bayerns-beste-gipfelstürmer",
      "status": "PUBLIC",
      "content": "",
      "language": 1,
      "version": 1,
      "last_updated": "2022-10-12T16:05:13.532Z",
      "creator": 1,
      "poi": 223,
      "meta_description": "IG Klettern München & Südbayern e.V. / Bayerns beste Gipfelstürmer"
    }
  },
  {
    "model": "cms.poitranslation",
    "pk": 247,
    "fields": {
      "title": "Refugio München Kunstwerkstatt im Kunstlabor 2",
      "slug": "refugio-münchen-kunstwerkstatt-im-kunstlabor-2",
      "status": "PUBLIC",
      "content": "",
      "language": 1,
      "version": 1,
      "last_updated": "2022-10-12T16:33:47.648Z",
      "creator": 1,
      "poi": 224,
      "meta_description": "Refugio München Kunstwerkstatt im Kunstlabor 2"
    }
  },
  {
    "model": "cms.poitranslation",
    "pk": 248,
    "fields": {
      "title": "EineWeltHaus",
      "slug": "einewelthaus",
      "status": "PUBLIC",
      "content": "",
      "language": 1,
      "version": 1,
      "last_updated": "2022-10-13T13:54:28.590Z",
      "creator": 1,
      "poi": 225,
      "meta_description": "EineWeltHaus"
    }
  },
  {
    "model": "cms.poitranslation",
    "pk": 249,
    "fields": {
      "title": "Arrival Aid",
      "slug": "arrival-aid-2",
      "status": "PUBLIC",
      "content": "",
      "language": 1,
      "version": 1,
      "last_updated": "2022-10-13T14:24:08.680Z",
      "creator": 1,
      "poi": 226,
      "meta_description": "Arrival Aid"
    }
  },
  {
    "model": "cms.poitranslation",
    "pk": 250,
    "fields": {
      "title": "SUB - schwul-queeres Zentrum",
      "slug": "sub-schwul-queeres-zentrum",
      "status": "PUBLIC",
      "content": "",
      "language": 1,
      "version": 1,
      "last_updated": "2022-10-13T15:18:23.306Z",
      "creator": 1,
      "poi": 227,
      "meta_description": "SUB - schwul-queeres Zentrum"
    }
  },
  {
    "model": "cms.poitranslation",
    "pk": 251,
    "fields": {
      "title": "FAMI Zentrum",
      "slug": "fami-zentrum",
      "status": "PUBLIC",
      "content": "",
      "language": 1,
      "version": 1,
      "last_updated": "2022-10-13T15:50:34.067Z",
      "creator": 1,
      "poi": 228,
      "meta_description": "FAMI Zentrum"
    }
  },
  {
    "model": "cms.poitranslation",
    "pk": 252,
    "fields": {
      "title": "Arrival Aid",
      "slug": "arrival-aid-2",
      "status": "PUBLIC",
      "content": "",
      "language": 1,
      "version": 2,
      "minor_edit": true,
      "last_updated": "2022-10-13T15:58:54.039Z",
      "creator": 1,
      "poi": 226,
      "meta_description": "Arrival Aid"
    }
  },
  {
    "model": "cms.poitranslation",
    "pk": 253,
    "fields": {
      "title": "Städtische Berufsschule zur Berufsintegration",
      "slug": "städtische-berufsschule-zur-berufsintegration",
      "status": "PUBLIC",
      "content": "",
      "language": 1,
      "version": 1,
      "last_updated": "2022-10-21T12:39:58.336Z",
      "creator": 1,
      "poi": 229,
      "meta_description": "Städtische Berufsschule zur Berufsintegration"
    }
  },
  {
    "model": "cms.poitranslation",
    "pk": 254,
    "fields": {
      "title": "Beratungsstelle Frauen*notruf",
      "slug": "beratungsstelle-frauennotruf",
      "status": "PUBLIC",
      "content": "",
      "language": 1,
      "version": 1,
      "last_updated": "2022-10-21T16:50:16.587Z",
      "creator": 1,
      "poi": 230,
      "meta_description": "Beratungsstelle Frauen*notruf"
    }
  },
  {
    "model": "cms.poitranslation",
    "pk": 255,
    "fields": {
      "title": "SHAERE",
      "slug": "shaere",
      "status": "PUBLIC",
      "content": "",
      "language": 1,
      "version": 1,
      "last_updated": "2022-10-24T10:12:30.214Z",
      "creator": 1,
      "poi": 231,
      "meta_description": "SHAERE"
    }
  },
  {
    "model": "cms.poitranslation",
    "pk": 256,
    "fields": {
      "title": "Giesinger Bahnhof",
      "slug": "giesinger-bahnhof",
      "status": "PUBLIC",
      "content": "",
      "language": 1,
      "version": 1,
      "last_updated": "2022-10-24T10:25:21.851Z",
      "creator": 1,
      "poi": 232,
      "meta_description": "Giesinger Bahnhof"
    }
  },
  {
    "model": "cms.poitranslation",
    "pk": 257,
    "fields": {
      "title": "Kreisverwaltungsreferat",
      "slug": "kreisverwaltungsreferat",
      "status": "PUBLIC",
      "content": "",
      "language": 1,
      "version": 1,
      "last_updated": "2022-10-26T09:02:55.542Z",
      "creator": 1,
      "poi": 233,
      "meta_description": "Kreisverwaltungsreferat"
    }
  },
  {
    "model": "cms.poitranslation",
    "pk": 258,
    "fields": {
      "title": "Freizeittreff 103er",
      "slug": "freizeittreff-103er",
      "status": "PUBLIC",
      "content": "",
      "language": 1,
      "version": 1,
      "last_updated": "2022-10-27T10:54:48.203Z",
      "creator": 1,
      "poi": 234,
      "meta_description": "Freizeittreff 103er"
    }
  },
  {
    "model": "cms.poitranslation",
    "pk": 259,
    "fields": {
      "title": "Kulturzentrum Giesinger Bahnhof",
      "slug": "kulturzentrum-giesinger-bahnhof",
      "status": "PUBLIC",
      "content": "",
      "language": 1,
      "version": 2,
      "last_updated": "2022-10-27T12:04:35.928Z",
      "creator": 1,
      "poi": 232,
      "meta_description": "Kulturzentrum Giesinger Bahnhof"
    }
  },
  {
    "model": "cms.poitranslation",
    "pk": 260,
    "fields": {
      "title": "Alten und Servicezentrum Obergiesing",
      "slug": "alten-und-servicezentrum-obergiesing",
      "status": "PUBLIC",
      "content": "",
      "language": 1,
      "version": 1,
      "last_updated": "2022-10-27T12:06:17.099Z",
      "creator": 1,
      "poi": 235,
      "meta_description": "Alten und Servicezentrum Obergiesing"
    }
  },
  {
    "model": "cms.poitranslation",
    "pk": 261,
    "fields": {
      "title": "Neues Rathaus",
      "slug": "neues-rathaus",
      "status": "PUBLIC",
      "content": "",
      "language": 1,
      "version": 1,
      "last_updated": "2022-10-31T16:56:10.408Z",
      "creator": 1,
      "poi": 236,
      "meta_description": "Neues Rathaus"
    }
  },
  {
    "model": "cms.poitranslation",
    "pk": 262,
    "fields": {
      "title": "Kulturzentrum GOROD / GIK e.V.",
      "slug": "kulturzentrum-gorod-gik-ev",
      "status": "PUBLIC",
      "content": "",
      "language": 1,
      "version": 1,
      "last_updated": "2022-11-02T10:00:31.803Z",
      "creator": 1,
      "poi": 237,
      "meta_description": "Kulturzentrum GOROD / GIK e.V."
    }
  },
  {
    "model": "cms.poitranslation",
    "pk": 263,
    "fields": {
      "title": "IN VIA",
      "slug": "in-via",
      "status": "PUBLIC",
      "content": "",
      "language": 1,
      "version": 1,
      "last_updated": "2022-11-03T10:17:48.718Z",
      "creator": 1,
      "poi": 238,
      "meta_description": "IN VIA"
    }
  },
  {
    "model": "cms.poitranslation",
    "pk": 264,
    "fields": {
      "title": "Kindertagesstätte Schaffhauser Str. 17A",
      "slug": "kindertagesstätte-schaffhauser-str-17a",
      "status": "PUBLIC",
      "content": "",
      "language": 1,
      "version": 1,
      "last_updated": "2022-11-03T16:26:26.725Z",
      "creator": 1,
      "poi": 239,
      "meta_description": "Kindertagesstätte Schaffhauser Str. 17A"
    }
  },
  {
    "model": "cms.poitranslation",
    "pk": 265,
    "fields": {
      "title": "Medienzentrum München",
      "slug": "medienzentrum-münchen",
      "status": "PUBLIC",
      "content": "",
      "language": 1,
      "version": 1,
      "last_updated": "2022-12-05T10:54:31.888Z",
      "creator": 1,
      "poi": 240,
      "meta_description": ""
    }
  },
  {
    "model": "cms.poitranslation",
    "pk": 266,
    "fields": {
      "title": "LeTRa e. V.",
      "slug": "letra-e-v",
      "status": "PUBLIC",
      "content": "",
      "language": 1,
      "version": 1,
      "last_updated": "2022-12-05T12:30:09.296Z",
      "creator": 1,
      "poi": 241,
      "meta_description": ""
    }
  },
  {
    "model": "cms.poitranslation",
    "pk": 267,
    "fields": {
      "title": "KinderTagesZentrum",
      "slug": "kindertageszentrum",
      "status": "PUBLIC",
      "content": "",
      "language": 1,
      "version": 1,
      "last_updated": "2022-12-13T11:18:35.098Z",
      "creator": 1,
      "poi": 242,
      "meta_description": ""
    }
  },
  {
    "model": "cms.poitranslation",
    "pk": 268,
    "fields": {
      "title": "KinderTagesZentrum KiTZ",
      "slug": "kindertageszentrum-kitz-2",
      "status": "PUBLIC",
      "content": "",
      "language": 1,
      "version": 2,
      "last_updated": "2022-12-13T11:20:06.324Z",
      "creator": 1,
      "poi": 242,
      "meta_description": ""
    }
  },
  {
    "model": "cms.poitranslation",
    "pk": 269,
    "fields": {
      "title": "Stadtteilkulturzentrum Guardini90",
      "slug": "stadtteilkulturzentrum-guardini90",
      "status": "PUBLIC",
      "content": "<p>Stadtteilkulturzentrum Guardini90</p>",
      "language": 1,
      "version": 1,
      "last_updated": "2023-01-10T13:15:52.845Z",
      "creator": 1,
      "poi": 243,
      "meta_description": ""
    }
  },
  {
    "model": "cms.poitranslation",
    "pk": 270,
    "fields": {
      "title": "Stadtteilkulturzentrum Guardini90",
      "slug": "stadtteilkulturzentrum-guardini90",
      "status": "PUBLIC",
      "content": "<p>Stadtteilkulturzentrum Guardini90</p>",
      "language": 1,
      "version": 2,
      "minor_edit": true,
      "last_updated": "2023-01-10T13:17:15.411Z",
      "creator": 1,
      "poi": 243,
      "meta_description": ""
    }
  },
  {
    "model": "cms.poitranslation",
    "pk": 271,
    "fields": {
      "title": "FiBS",
      "slug": "fibs",
      "status": "PUBLIC",
      "content": "<p>FiBS</p>",
      "language": 1,
      "version": 1,
      "last_updated": "2023-01-10T14:57:15.925Z",
      "creator": 1,
      "poi": 244,
      "meta_description": ""
    }
  },
  {
    "model": "cms.poitranslation",
    "pk": 272,
    "fields": {
      "title": "IMAL Musiktheater",
      "slug": "imal-musiktheater",
      "status": "PUBLIC",
      "content": "<p>IMAL Musiktheater</p>",
      "language": 1,
      "version": 1,
      "last_updated": "2023-02-08T17:33:14.565Z",
      "creator": 1,
      "poi": 245,
      "meta_description": ""
    }
  },
  {
    "model": "cms.poitranslation",
    "pk": 273,
    "fields": {
      "title": "Projekt-Laden International Haidhausen",
      "slug": "projekt-laden-international-haidhausen",
      "status": "PUBLIC",
      "content": "",
      "language": 1,
      "version": 4,
      "minor_edit": true,
      "last_updated": "2023-02-14T11:10:52.451Z",
      "creator": 1,
      "poi": 107,
      "meta_description": ""
    }
  },
  {
    "model": "cms.poitranslation",
    "pk": 274,
    "fields": {
      "title": "Bellevue di Monaco",
      "slug": "bellevue-di-monaco-2",
      "status": "PUBLIC",
      "content": "",
      "language": 1,
      "version": 3,
      "last_updated": "2023-02-14T12:09:31.040Z",
      "creator": 1,
      "poi": 104,
      "meta_description": ""
    }
  },
  {
    "model": "cms.poitranslation",
    "pk": 275,
    "fields": {
      "title": "Bellevue di Monaco",
      "slug": "bellevue-di-monaco-2",
      "status": "PUBLIC",
      "content": "",
      "language": 1,
      "version": 4,
      "minor_edit": true,
      "last_updated": "2023-02-14T12:09:48.839Z",
      "creator": 1,
      "poi": 104,
      "meta_description": ""
    }
  },
  {
    "model": "cms.poitranslation",
    "pk": 276,
    "fields": {
      "title": "Raum 2, LUISE werkt",
      "slug": "raum-2-luise-werkt",
      "status": "PUBLIC",
      "content": "",
      "language": 1,
      "version": 2,
      "minor_edit": true,
      "last_updated": "2023-02-14T12:10:02.815Z",
      "creator": 1,
      "poi": 101,
      "meta_description": ""
    }
  },
  {
    "model": "cms.poitranslation",
    "pk": 277,
    "fields": {
      "title": "DAV Kletter- und Boulderzentrum München-Süd",
      "slug": "dav-kletter-und-boulderzentrum-muenchen-sued",
      "status": "PUBLIC",
      "content": "",
      "language": 1,
      "version": 3,
      "minor_edit": true,
      "last_updated": "2023-02-14T12:10:09.215Z",
      "creator": 1,
      "poi": 113,
      "meta_description": ""
    }
  },
  {
    "model": "cms.poitranslation",
    "pk": 278,
    "fields": {
      "title": "Altes Rathaus",
      "slug": "altes-rathaus",
      "status": "PUBLIC",
      "content": "",
      "language": 1,
      "version": 2,
      "minor_edit": true,
      "last_updated": "2023-02-14T12:10:15.221Z",
      "creator": 1,
      "poi": 118,
      "meta_description": ""
    }
  },
  {
    "model": "cms.poitranslation",
    "pk": 279,
    "fields": {
      "title": "InitiativGruppe - Interkulturelle Begegnung und Bildung e.V.",
      "slug": "initiativgruppe-interkulturelle-begegnung-und-bildung-ev",
      "status": "PUBLIC",
      "content": "",
      "language": 1,
      "version": 2,
      "minor_edit": true,
      "last_updated": "2023-02-14T12:10:22.409Z",
      "creator": 1,
      "poi": 120,
      "meta_description": ""
    }
  },
  {
    "model": "cms.poitranslation",
    "pk": 280,
    "fields": {
      "title": "BildungsLokal Hasenbergl",
      "slug": "bildungslokal-hasenbergl",
      "status": "PUBLIC",
      "content": "",
      "language": 1,
      "version": 2,
      "minor_edit": true,
      "last_updated": "2023-02-14T12:10:37.981Z",
      "creator": 1,
      "poi": 161,
      "meta_description": ""
    }
  },
  {
    "model": "cms.poitranslation",
    "pk": 281,
    "fields": {
      "title": "BildungsLokal Neuperlach",
      "slug": "bildungslokal-neuperlach",
      "status": "PUBLIC",
      "content": "",
      "language": 1,
      "version": 2,
      "minor_edit": true,
      "last_updated": "2023-02-14T12:10:43.391Z",
      "creator": 1,
      "poi": 164,
      "meta_description": ""
    }
  },
  {
    "model": "cms.poitranslation",
    "pk": 282,
    "fields": {
      "title": "DEB gGmbH",
      "slug": "deb-ggmbh",
      "status": "PUBLIC",
      "content": "",
      "language": 1,
      "version": 2,
      "minor_edit": true,
      "last_updated": "2023-02-14T12:10:50.586Z",
      "creator": 1,
      "poi": 169,
      "meta_description": ""
    }
  },
  {
    "model": "cms.poitranslation",
    "pk": 283,
    "fields": {
      "title": "Familienzentrum Laim",
      "slug": "familienzentrum-laim",
      "status": "PUBLIC",
      "content": "",
      "language": 1,
      "version": 2,
      "minor_edit": true,
      "last_updated": "2023-02-14T12:10:57.551Z",
      "creator": 1,
      "poi": 174,
      "meta_description": ""
    }
  },
  {
    "model": "cms.poitranslation",
    "pk": 284,
    "fields": {
      "title": "Fabi Milbertshofen",
      "slug": "fabi-milbertshofen-2",
      "status": "PUBLIC",
      "content": "",
      "language": 1,
      "version": 3,
      "minor_edit": true,
      "last_updated": "2023-02-14T12:11:12.403Z",
      "creator": 1,
      "poi": 106,
      "meta_description": ""
    }
  },
  {
    "model": "cms.poitranslation",
    "pk": 285,
    "fields": {
      "title": "Hauptbahnhof - DB Infopoint",
      "slug": "hauptbahnhof-db-infopoint",
      "status": "PUBLIC",
      "content": "",
      "language": 1,
      "version": 3,
      "minor_edit": true,
      "last_updated": "2023-02-14T12:11:20.446Z",
      "creator": 1,
      "poi": 111,
      "meta_description": ""
    }
  },
  {
    "model": "cms.poitranslation",
    "pk": 286,
    "fields": {
      "title": "Bildungs- und Integrationszentrum der Johannniter-Unfall-Hilfe e.V.",
      "slug": "bildungs-und-integrationszentrum-der-johannniter-unfall-hilfe-e-v",
      "status": "PUBLIC",
      "content": "",
      "language": 1,
      "version": 4,
      "minor_edit": true,
      "last_updated": "2023-02-14T12:11:26.075Z",
      "creator": 1,
      "poi": 115,
      "meta_description": ""
    }
  },
  {
    "model": "cms.poitranslation",
    "pk": 287,
    "fields": {
      "title": "Stadtbibliothek Hasenbergl",
      "slug": "stadtbibliothek-hasenbergl",
      "status": "PUBLIC",
      "content": "",
      "language": 1,
      "version": 2,
      "minor_edit": true,
      "last_updated": "2023-02-14T12:11:31.330Z",
      "creator": 1,
      "poi": 117,
      "meta_description": ""
    }
  },
  {
    "model": "cms.poitranslation",
    "pk": 288,
    "fields": {
      "title": "Projektladen International Haidhausen",
      "slug": "projektladen-international-haidhausen",
      "status": "PUBLIC",
      "content": "",
      "language": 1,
      "version": 2,
      "minor_edit": true,
      "last_updated": "2023-02-14T12:11:37.754Z",
      "creator": 1,
      "poi": 119,
      "meta_description": ""
    }
  },
  {
    "model": "cms.poitranslation",
    "pk": 289,
    "fields": {
      "title": "Verein für Sozialarbeit e.V.",
      "slug": "verein-für-sozialarbeit-ev",
      "status": "PUBLIC",
      "content": "",
      "language": 1,
      "version": 2,
      "minor_edit": true,
      "last_updated": "2023-02-14T12:11:43.084Z",
      "creator": 1,
      "poi": 121,
      "meta_description": ""
    }
  },
  {
    "model": "cms.poitranslation",
    "pk": 290,
    "fields": {
      "title": "JiBB München",
      "slug": "jibb-muenchen",
      "status": "PUBLIC",
      "content": "",
      "language": 1,
      "version": 1,
      "last_updated": "2022-06-10T10:31:27.289Z",
      "creator": 1,
      "poi": 100,
      "meta_description": "JiBB München"
    }
  }
]
